street_address,city,state,zip5,geocode_score,geocode_precision,latitude,longitude
"61 FARRAND RD",PRINCETON,NJ,08540,0.965,range,40.342884,-74.680464
"61 FARRAND RD",PRINCETON,NJ,08540,0.965,range,40.342884,-74.680464
"15 PALMER SQUARE WEST",PRINCETON,NJ,08542,1.0,range,40.350573,-74.662031
"37 STONEWALL CIR",PRINCETON,NJ,08540,0.965,range,40.381312,-74.673829
"0 EISENHOWER ST 219B",PRINCETON,NJ,08540,0.576,street,40.34964,-74.637791
"19 EDWARDS PL 2",PRINCETON,NJ,08540,0.936,range,40.346921,-74.662012
"95 CRESTVIEW DR",PRINCETON,NJ,08540,0.965,range,40.37184,-74.66813
"25 LINDEN LN",PRINCETON,NJ,08540,0.965,range,40.354052,-74.649628
"69 PRETTY BROOK RD",PRINCETON,NJ,08540,0.965,range,40.358059,-74.689348
"13 NEWLIN RD",PRINCETON,NJ,08540,0.965,range,40.335288,-74.663702
"13 NEWLIN RD",PRINCETON,NJ,08540,0.965,range,40.335288,-74.663702
"126 JOHN ST 3",PRINCETON,NJ,08542,0.958,range,40.351974,-74.663011
"208 EWING ST",PRINCETON,NJ,08540,0.965,range,40.35862,-74.650372
"69 PRETTY BROOK RD",PRINCETON,NJ,08540,0.965,range,40.358059,-74.689348
"180 LAUREL CIR",PRINCETON,NJ,08540,0.965,range,40.370862,-74.661548
"283 PROSPECT AVE",PRINCETON,NJ,08540,0.965,range,40.352263,-74.639247
"33 BRAEBURN DR",PRINCETON,NJ,08540,0.965,range,40.365728,-74.643343
"168 HICKORY CT",PRINCETON,NJ,08540,0.965,range,40.361938,-74.657358
"0 KING ST 219D",PRINCETON,NJ,08540,0.532,street,40.34918,-74.638797
"125 310 ELM RD",PRINCETON,NJ,08540,0.855,range,40.34629,-74.674583
"6 LAWRENCE DR 104",PRINCETON,NJ,08540,0.74,range,40.359082,-74.647796
"0 KING ST 219D",PRINCETON,NJ,08540,0.532,street,40.34918,-74.638797
"25 SPRING ST 303",PRINCETON,NJ,08542,0.92,range,40.351136,-74.65958
"177 JEFFERSON RD",PRINCETON,NJ,08540,0.965,range,40.359559,-74.659476
"89 BATTLE RD",PRINCETON,NJ,08540,0.965,range,40.335821,-74.670268
"73 RANDOM RD",PRINCETON,NJ,08540,0.965,range,40.363098,-74.632221
"5 HOLLY HSE J",PRINCETON,NJ,08540,0.545,street,40.322559,-74.683742
"104 GROVER AVE",PRINCETON,NJ,08540,0.965,range,40.363601,-74.647358
"21 BATTLE RD",PRINCETON,NJ,08540,0.965,range,40.33859,-74.667826
"33 LYTLE ST",PRINCETON,NJ,08542,1.0,range,40.355077,-74.662676
"4393 PROVINCELINE RD",PRINCETON,NJ,08540,0.868,street,40.312661,-74.695878
"6 SOUTHERN WAY",PRINCETON,NJ,08540,0.965,range,40.349279,-74.641793
"129 310 ELM RD",PRINCETON,NJ,08540,0.855,range,40.346378,-74.674635
"55 W CONSTITUTION HILL",PRINCETON,NJ,08540,0.931,range,40.344301,-74.67893
"11 WESTCOTT RD",PRINCETON,NJ,08540,0.965,range,40.35356,-74.66865
"583 EWING ST",PRINCETON,NJ,08540,0.965,range,40.368938,-74.658096
"20 CLEVELAND LN",PRINCETON,NJ,08540,0.965,range,40.352062,-74.668531
"38 MCCOMB RD",PRINCETON,NJ,08540,0.965,range,40.377729,-74.65272
"42 MURRAY PL",PRINCETON,NJ,08540,0.965,range,40.351289,-74.648811
"650 CHERRY HILL RD",PRINCETON,NJ,08540,0.965,range,40.381779,-74.677715
"20 HILLSIDE AVE",PRINCETON,NJ,08540,0.965,range,40.387842,-74.658396
"8 HAMILTON AVE",PRINCETON,NJ,08540,0.772,street,40.355208,-74.653419
"20 HILLSIDE AVE",PRINCETON,NJ,08540,0.965,range,40.387842,-74.658396
"834 PRINCETON-KINGSTON RD",PRINCETON,NJ,08540,0.965,range,40.365579,-74.627537
"22 GROVER AVE",PRINCETON,NJ,08540,0.965,range,40.361643,-74.645359
"51 DAVID BREARLEY CT",PRINCETON,NJ,08540,0.946,range,40.387521,-74.659488
"10 PELHAM ST",PRINCETON,NJ,08540,0.965,range,40.352705,-74.644268
"24 JUNIPER ROW",PRINCETON,NJ,08540,0.965,range,40.376074,-74.651538
"229 S HARRISON ST",PRINCETON,NJ,08540,0.965,range,40.347922,-74.640935
"53 WIGGINS ST",PRINCETON,NJ,08540,0.965,range,40.353414,-74.656947
"50 FISHER AVE",PRINCETON,NJ,08540,0.965,range,40.358868,-74.645625
"256 EDGERSTOUNE RD",PRINCETON,NJ,08540,0.943,range,40.340327,-74.686393
"36 SCOTT LN",PRINCETON,NJ,08540,0.965,range,40.355477,-74.64362
"460 CHRISTOPHER DR",PRINCETON,NJ,08540,0.965,range,40.351569,-74.704525
"5 HOLLY HSE D",PRINCETON,NJ,08540,0.577,street,40.322559,-74.683742
"345 EWING ST",PRINCETON,NJ,08540,0.965,range,40.362412,-74.653309
"210 MOUNTAIN AVE",PRINCETON,NJ,08540,0.965,range,40.35489,-74.676861
"201 MOORE ST",PRINCETON,NJ,08540,0.965,range,40.35854,-74.657651
"3 WINDERMERE WAY",PRINCETON,NJ,08540,0.965,range,40.360922,-74.698885
"3 WINDERMERE WAY",PRINCETON,NJ,08540,0.965,range,40.360922,-74.698885
"39 BENJAMIN RUSH LN",PRINCETON,NJ,08540,0.965,range,40.330027,-74.685671
"214 BIRCH AVE",PRINCETON,NJ,08542,1.0,range,40.355873,-74.667884
"39 BENJAMIN RUSH LN",PRINCETON,NJ,08540,0.965,range,40.330027,-74.685671
"312 N HARRISON ST",PRINCETON,NJ,08540,0.965,range,40.363374,-74.65203
"63 FARRAND RD",PRINCETON,NJ,08540,0.965,range,40.342952,-74.680519
"300 ELM RD 219",PRINCETON,NJ,08540,0.855,range,40.352522,-74.679184
"23 HILLSIDE AVE",PRINCETON,NJ,08540,0.965,range,40.387906,-74.658434
"216 REDDING CIR",PRINCETON,NJ,08540,0.965,range,40.372647,-74.659786
"89 POE RD",PRINCETON,NJ,08540,0.965,range,40.366432,-74.630676
"17 W CONSTITUTION HILL",PRINCETON,NJ,08540,0.931,range,40.346472,-74.678672
"17 W CONSTITUTION HILL",PRINCETON,NJ,08540,0.931,range,40.346472,-74.678672
"140 CRESTVIEW DR",PRINCETON,NJ,08540,0.965,range,40.372207,-74.66689
"43 DORANN AVE",PRINCETON,NJ,08540,0.965,range,40.361127,-74.647767
"46 WILTON ST",PRINCETON,NJ,08540,0.965,range,40.353582,-74.64206
"41 ERDMAN AVE",PRINCETON,NJ,08540,0.965,range,40.35949,-74.64654
"8 PRINCETON AVE",PRINCETON,NJ,08540,0.965,range,40.352967,-74.648069
"28 QUAKER RD",PRINCETON,NJ,08540,0.965,range,40.33254,-74.681387
"45 GREENBRIER ROW",PRINCETON,NJ,08540,0.943,range,40.376686,-74.650229
"155 EDGERSTOUNE RD",PRINCETON,NJ,08540,0.943,range,40.338391,-74.683318
"155 EDGERSTOUNE RD",PRINCETON,NJ,08540,0.943,range,40.338391,-74.683318
"238 WILLIAM LIVINGSTON CT",PRINCETON,NJ,08540,0.965,range,40.387827,-74.66158
"63 FARRAND RD",PRINCETON,NJ,08540,0.965,range,40.342952,-74.680519
"300 ELM RD 138",PRINCETON,NJ,08540,0.855,range,40.352522,-74.679184
"15 MULBERRY ROW",PRINCETON,NJ,08540,0.965,range,40.376361,-74.650907
"92 GULICK RD",PRINCETON,NJ,08540,0.965,range,40.367863,-74.629043
"1131 STUART RD",PRINCETON,NJ,08540,0.965,range,40.369342,-74.683762
"30 ERDMAN AVE",PRINCETON,NJ,08540,0.965,range,40.359686,-74.646211
"44 MERCER ST",PRINCETON,NJ,08540,0.965,range,40.346606,-74.664658
"68 LOVERS LN 3",PRINCETON,NJ,08540,0.933,range,40.340977,-74.672022
"753 PROSPECT AVE EXT",PRINCETON,NJ,08540,0.902,range,40.364089,-74.627035
"138 HERRONTOWN RD",PRINCETON,NJ,08540,0.965,range,40.376993,-74.630884
"71 PALMER SQUARE WEST G",PRINCETON,NJ,08542,0.971,range,40.34982,-74.661633
"1075 GREAT RD",PRINCETON,NJ,08540,0.965,range,40.37377,-74.695164
"1075 GREAT RD",PRINCETON,NJ,08540,0.965,range,40.37377,-74.695164
"26 CONISTON CT",PRINCETON,NJ,08540,0.965,range,40.359131,-74.689959
"46 PRINCETON AVE",PRINCETON,NJ,08540,0.965,range,40.351336,-74.646937
"16 COLLEGE RD WEST",PRINCETON,NJ,08540,0.965,range,40.342168,-74.664817
"6 OLDEN LN",PRINCETON,NJ,08540,0.868,street,40.338671,-74.670561
"46 PRINCETON AVE",PRINCETON,NJ,08540,0.965,range,40.351336,-74.646937
"315 RIVERSIDE DR",PRINCETON,NJ,08540,0.965,range,40.352022,-74.630303
"224 E STUART RD",PRINCETON,NJ,08540,0.965,range,40.376624,-74.657195
"27 E MARION RD",PRINCETON,NJ,08540,0.9,range,40.370124,-74.628076
"27 E MARION RD",PRINCETON,NJ,08540,0.9,range,40.370124,-74.628076
"13 CAMPBELTON CIR",PRINCETON,NJ,08540,0.965,range,40.347774,-74.670966
"30 WESTCOTT RD",PRINCETON,NJ,08540,0.965,range,40.353449,-74.669005
"95 LIBRARY PL",PRINCETON,NJ,08540,0.965,range,40.347576,-74.66862
"224 E STUART RD",PRINCETON,NJ,08540,0.965,range,40.376624,-74.657195
"51 PATTON AVE",PRINCETON,NJ,08540,0.965,range,40.351407,-74.646073
"124 MERCER ST",PRINCETON,NJ,08540,0.965,range,40.342926,-74.667468
"23 CARNAHAN PL",PRINCETON,NJ,08540,0.965,range,40.358785,-74.662027
"32 CUYLER RD",PRINCETON,NJ,08540,0.965,range,40.366167,-74.660453
"36 PARK PL",PRINCETON,NJ,08542,1.0,range,40.351775,-74.656334
"77 CLEARVIEW AVE",PRINCETON,NJ,08540,0.965,range,40.362259,-74.647899
"55 BALDWIN LN",PRINCETON,NJ,08540,0.965,range,40.377438,-74.693143
"43 GREENBRIER ROW",PRINCETON,NJ,08540,0.943,range,40.376694,-74.650241
"4339 PROVINCE LINE RD",PRINCETON,NJ,08540,0.965,range,40.305868,-74.693327
"654 STATE RD",PRINCETON,NJ,08540,0.965,range,40.380702,-74.662482
"35 TALBOT LN",PRINCETON,NJ,08540,0.965,range,40.321413,-74.689258
"151 MT LUCAS RD",PRINCETON,NJ,08540,0.892,range,40.365962,-74.662443
"80 STOCKTON ST",PRINCETON,NJ,08540,0.965,range,40.345801,-74.668617
"13 MACLEAN ST",PRINCETON,NJ,08542,1.0,range,40.354442,-74.662032
"21 W CONSTITUTION HILL",PRINCETON,NJ,08540,0.931,range,40.346239,-74.678631
"61 ROBERT RD",PRINCETON,NJ,08540,0.965,range,40.353639,-74.639616
"132 310 ELM RD",PRINCETON,NJ,08540,0.855,range,40.346401,-74.674648
"49 WILSON RD",PRINCETON,NJ,08540,0.965,range,40.353992,-74.669544
"376 RIVERSIDE DR",PRINCETON,NJ,08540,0.965,range,40.355165,-74.629512
"49 WILSON RD",PRINCETON,NJ,08540,0.965,range,40.353992,-74.669544
"23 FISHER AVE",PRINCETON,NJ,08540,0.965,range,40.358709,-74.645882
"23 FISHER AVE",PRINCETON,NJ,08540,0.965,range,40.358709,-74.645882
"20 W CONSTITUTION HILL",PRINCETON,NJ,08540,0.931,range,40.346931,-74.678991
"220 BULLOCK DR",PRINCETON,NJ,08540,0.965,range,40.326357,-74.684352
"416 NASSAU ST",PRINCETON,NJ,08540,0.965,range,40.355325,-74.64208
"61 OVERBROOK DR",PRINCETON,NJ,08540,0.965,range,40.367464,-74.638338
"125 JOHN ST",PRINCETON,NJ,08542,1.0,range,40.352269,-74.663111
"19 MORAN AVE",PRINCETON,NJ,08540,0.803,range,40.369001,-74.627309
"25 PHILIP DR",PRINCETON,NJ,08540,0.933,range,40.354551,-74.634023
"88 DOGWOOD HL",PRINCETON,NJ,08540,0.912,range,40.383655,-74.656217
"88 DOGWOOD HL",PRINCETON,NJ,08540,0.912,range,40.383655,-74.656217
"360 JEFFERSON RD",PRINCETON,NJ,08540,0.965,range,40.363633,-74.660456
"15 UNIVERSITY PL 2N",PRINCETON,NJ,08540,0.923,range,40.347983,-74.662653
"22 MADISON ST",PRINCETON,NJ,08542,1.0,range,40.35204,-74.656602
"37 CLEARVIEW AVE",PRINCETON,NJ,08540,0.965,range,40.361251,-74.649416
"30 BILLIE ELLIS LN",PRINCETON,NJ,08540,0.965,range,40.387753,-74.659172
"36 WOODLAND DR",PRINCETON,NJ,08540,0.965,range,40.369821,-74.664535
"44 WILKINSON WAY",PRINCETON,NJ,08540,0.965,range,40.326853,-74.685561
"8 STONEWALL CIR",PRINCETON,NJ,08540,0.965,range,40.380863,-74.675016
"159 PHILIP DR",PRINCETON,NJ,08540,0.933,range,40.353053,-74.62945
"197 VALLEY RD",PRINCETON,NJ,08540,0.965,range,40.363221,-74.656642
"801 MT LUCAS RD",PRINCETON,NJ,08540,0.892,range,40.387136,-74.653162
"44 WILKINSON WAY",PRINCETON,NJ,08540,0.965,range,40.326853,-74.685561
"801 MT LUCAS RD",PRINCETON,NJ,08540,0.892,range,40.387136,-74.653162
"48 CUYLER RD",PRINCETON,NJ,08540,0.965,range,40.366327,-74.659558
"75 CLAY ST",PRINCETON,NJ,08542,1.0,range,40.355589,-74.664012
"48 CUYLER RD",PRINCETON,NJ,08540,0.965,range,40.366327,-74.659558
"8 STONEWALL CIR",PRINCETON,NJ,08540,0.965,range,40.380863,-74.675016
"253 NASSAU ST 202",PRINCETON,NJ,08540,0.885,range,40.352285,-74.651341
"74 WILSON RD",PRINCETON,NJ,08540,0.965,range,40.354261,-74.669782
"52 CLEARVIEW AVE",PRINCETON,NJ,08540,0.965,range,40.361269,-74.649375
"171 WESTCOTT RD",PRINCETON,NJ,08540,0.965,range,40.351375,-74.677507
"24 DEMPSEY AVE",PRINCETON,NJ,08540,0.965,range,40.365168,-74.659241
"171 WESTCOTT RD",PRINCETON,NJ,08540,0.965,range,40.351375,-74.677507
"18 CUYLER RD",PRINCETON,NJ,08540,0.965,range,40.366005,-74.660942
"14 FORESTER DR",PRINCETON,NJ,08540,0.965,range,40.354323,-74.638765
"252 SNOWDEN LN",PRINCETON,NJ,08540,0.965,range,40.364485,-74.642399
"24 DEMPSEY AVE",PRINCETON,NJ,08540,0.965,range,40.365168,-74.659241
"20 BOGART CT",PRINCETON,NJ,08540,0.965,range,40.36944,-74.70855
"46 CEDAR LN",PRINCETON,NJ,08540,0.965,range,40.353159,-74.640583
"141 HUN RD",PRINCETON,NJ,08540,0.965,range,40.339187,-74.690664
"266 SHADYBROOK LN",PRINCETON,NJ,08540,0.965,range,40.36809,-74.634129
"549 JEFFERSON RD EXT",PRINCETON,NJ,08540,0.902,range,40.367238,-74.662088
"430 NASSAU ST",PRINCETON,NJ,08540,0.965,range,40.355948,-74.64082
"695 LAWRENCEVILLE RD",PRINCETON,NJ,08540,0.965,range,40.33219,-74.684854
"32 WHEATSHEAF LN",PRINCETON,NJ,08540,0.965,range,40.35811,-74.639773
"614 BRICKHOUSE RD",PRINCETON,NJ,08540,0.965,range,40.328855,-74.684732
"319 SNOWDEN LN",PRINCETON,NJ,08540,0.965,range,40.366312,-74.641408
"25 POTTERS RUN",PRINCETON,NJ,08540,0.965,range,40.327885,-74.69059
"25 POTTERS RUN",PRINCETON,NJ,08540,0.965,range,40.327885,-74.69059
"360 JEFFERSON RD",PRINCETON,NJ,08540,0.965,range,40.363633,-74.660456
"319 SNOWDEN LN",PRINCETON,NJ,08540,0.965,range,40.366312,-74.641408
"80 ALEXANDER ST 1N",PRINCETON,NJ,08540,0.92,range,40.343833,-74.661593
"40 BROOKSTONE DR",PRINCETON,NJ,08540,0.965,range,40.346602,-74.693646
"516 PRINCETON-KINGSTON RD",PRINCETON,NJ,08540,0.965,range,40.357717,-74.63703
"16 GREEN ST",PRINCETON,NJ,08542,1.0,range,40.352502,-74.661231
"23 ALL SAINTS RD",PRINCETON,NJ,08540,0.965,range,40.372755,-74.64343
"24 BALCORT DR",PRINCETON,NJ,08540,0.936,range,40.377444,-74.67602
"55 WITHERSPOON ST 504",PRINCETON,NJ,08542,0.945,range,40.351467,-74.660493
"81 WOODSIDE LN",PRINCETON,NJ,08540,0.965,range,40.354283,-74.630974
"4 HAWTHORNE AVE",PRINCETON,NJ,08540,0.965,range,40.355371,-74.65634
"4 HAWTHORNE AVE",PRINCETON,NJ,08540,0.965,range,40.355371,-74.65634
"36 HIBBEN RD",PRINCETON,NJ,08540,0.965,range,40.343416,-74.668615
"25 RED OAK ROW",PRINCETON,NJ,08540,0.965,range,40.377629,-74.651414
"58 HUMBERT ST",PRINCETON,NJ,08542,1.0,range,40.353738,-74.658319
"46 CEDAR LN",PRINCETON,NJ,08540,0.965,range,40.353159,-74.640583
"48 BILLIE ELLIS LN",PRINCETON,NJ,08540,0.965,range,40.386938,-74.659212
"95 LIBRARY PL",PRINCETON,NJ,08540,0.965,range,40.347576,-74.66862
"56 BATTLE RD",PRINCETON,NJ,08540,0.965,range,40.337255,-74.668629
"22 CORDOVA RD",PRINCETON,NJ,08540,0.965,range,40.383323,-74.63243
"613 BRICKHOUSE RD",PRINCETON,NJ,08540,0.965,range,40.328846,-74.684747
"432 BRICKHOUSE RD",PRINCETON,NJ,08540,0.965,range,40.330095,-74.68433
"36 HIBBEN RD",PRINCETON,NJ,08540,0.965,range,40.343416,-74.668615
"180 JEFFERSON RD",PRINCETON,NJ,08540,0.965,range,40.359712,-74.659526
"36 REDDING CIR",PRINCETON,NJ,08540,0.965,range,40.372437,-74.659368
"406 RIVERSIDE DR",PRINCETON,NJ,08540,0.965,range,40.356407,-74.629431
"49 GORDON WAY",PRINCETON,NJ,08540,0.965,range,40.355987,-74.645338
"1 MEETINGHOUSE CT",PRINCETON,NJ,08540,0.763,range,40.036851,-74.621854
"1 MEETINGHOUSE CT",PRINCETON,NJ,08540,0.763,range,40.036851,-74.621854
"518 BRICKHOUSE RD",PRINCETON,NJ,08540,0.965,range,40.329399,-74.683978
"19 JEFFERSON RD",PRINCETON,NJ,08540,0.965,range,40.353747,-74.656755
"31 RACE ST",PRINCETON,NJ,08542,1.0,range,40.356246,-74.667236
"970 GREAT RD",PRINCETON,NJ,08540,0.965,range,40.3697,-74.695019
"39 WILSON RD",PRINCETON,NJ,08540,0.965,range,40.353865,-74.66947
"221 NASSAU ST 2",PRINCETON,NJ,08542,0.967,range,40.351682,-74.653314
"65 ELM RD",PRINCETON,NJ,08540,0.965,range,40.344755,-74.673382
"212 JOHN ST 1ST FL",PRINCETON,NJ,08542,0.902,range,40.35467,-74.664138
"306 NASSAU ST",PRINCETON,NJ,08540,0.965,range,40.353324,-74.647674
"80 ERDMAN AVE",PRINCETON,NJ,08540,0.965,range,40.360478,-74.644341
"318 STONE CLIFF RD",PRINCETON,NJ,08540,0.965,range,40.351585,-74.706792
"43 MAIDENHEAD RD",PRINCETON,NJ,08540,0.648,zip,40.363882,-74.64795
"43 MAIDENHEAD RD",PRINCETON,NJ,08540,0.648,zip,40.363882,-74.64795
"186 MOORE ST",PRINCETON,NJ,08540,0.965,range,40.357877,-74.657438
"47 MAIDENHEAD RD",PRINCETON,NJ,08540,0.648,zip,40.363882,-74.64795
"47 MAIDENHEAD RD",PRINCETON,NJ,08540,0.648,zip,40.363882,-74.64795
"95 WILSON RD",PRINCETON,NJ,08540,0.965,range,40.354438,-74.669986
"72 MURRAY PL 1",PRINCETON,NJ,08540,0.933,range,40.350297,-74.648037
"1888 W STUART RD",PRINCETON,NJ,08540,0.738,street,40.36663,-74.691959
"43 BERTRAND DR",PRINCETON,NJ,08540,0.965,range,40.373174,-74.633262
"43 BERTRAND DR",PRINCETON,NJ,08540,0.965,range,40.373174,-74.633262
"30 BENJAMIN RUSH LN",PRINCETON,NJ,08540,0.965,range,40.330167,-74.686354
"25 LEIGH AVE",PRINCETON,NJ,08542,1.0,range,40.35634,-74.663738
"247 HARTLEY AVE",PRINCETON,NJ,08540,0.965,range,40.347271,-74.637884
"107 LINWOOD CIR",PRINCETON,NJ,08540,0.965,range,40.363775,-74.646132
"290 STOCKTON ST",PRINCETON,NJ,08540,0.965,range,40.341341,-74.67388
"20 W CONSTITUTION HILL",PRINCETON,NJ,08540,0.931,range,40.346931,-74.678991
"65 WOODSIDE LN",PRINCETON,NJ,08540,0.965,range,40.354348,-74.63174
"42 GREENBRIER ROW",PRINCETON,NJ,08540,0.943,range,40.376698,-74.650249
"492 PRINCETON-KINGSTON RD",PRINCETON,NJ,08540,0.965,range,40.357371,-74.638094
"429 PROSPECT AVE EXT",PRINCETON,NJ,08540,0.902,range,40.355542,-74.634209
"203 BERTRAND DR",PRINCETON,NJ,08540,0.965,range,40.374733,-74.627027
"164 MOORE ST",PRINCETON,NJ,08540,0.965,range,40.357182,-74.657073
"203 BERTRAND DR",PRINCETON,NJ,08540,0.965,range,40.374733,-74.627027
"111 BIRCH AVE",PRINCETON,NJ,08542,1.0,range,40.356486,-74.665795
"276 N HARRISON ST",PRINCETON,NJ,08540,0.965,range,40.362548,-74.651575
"209 NASSAU ST B",PRINCETON,NJ,08542,0.967,range,40.351483,-74.65382
"19 LAMBERT DR",PRINCETON,NJ,08540,0.965,range,40.340558,-74.698576
"55 LOCUST LN",PRINCETON,NJ,08540,0.965,range,40.359558,-74.63519
"495 EWING ST",PRINCETON,NJ,08540,0.965,range,40.366912,-74.65653
"5 FISHER AVE",PRINCETON,NJ,08540,0.965,range,40.358601,-74.646056
"110 POTTERS RUN",PRINCETON,NJ,08540,0.965,range,40.328098,-74.690173
"52 ROSS STEVENSON CIR",PRINCETON,NJ,08540,0.965,range,40.380992,-74.655746
"177 MOORE ST",PRINCETON,NJ,08540,0.965,range,40.357724,-74.657389
"258 JOHN ST",PRINCETON,NJ,08542,1.0,range,40.355855,-74.664735
"317 BRICKHOUSE RD",PRINCETON,NJ,08540,0.965,range,40.330249,-74.683956
"446 NASSAU ST",PRINCETON,NJ,08540,0.965,range,40.356339,-74.640182
"19 CONISTON CT",PRINCETON,NJ,08540,0.965,range,40.358982,-74.690181
"35 TURNER CT",PRINCETON,NJ,08540,0.965,range,40.362739,-74.66261
"6 OLDEN LN",PRINCETON,NJ,08540,0.868,street,40.338671,-74.670561
"39 PINE ST",PRINCETON,NJ,08542,1.0,range,40.353248,-74.651141
"27 ROSEDALE RD",PRINCETON,NJ,08540,0.965,range,40.348029,-74.677532
"73 MCCOSH CIR",PRINCETON,NJ,08540,0.965,range,40.344824,-74.63704
"13 EARLE LN",PRINCETON,NJ,08540,0.965,range,40.332986,-74.665549
"4 OBER RD",PRINCETON,NJ,08540,0.965,range,40.336505,-74.664334
"30 BENJAMIN RUSH LN",PRINCETON,NJ,08540,0.965,range,40.330167,-74.686354
"32 DOGWOOD LN",PRINCETON,NJ,08540,0.965,range,40.348733,-74.631788
"135 MCCOSH CIR",PRINCETON,NJ,08540,0.965,range,40.345763,-74.636447
"68 POTTERS RUN",PRINCETON,NJ,08540,0.965,range,40.327992,-74.690381
"196 JONATHAN DAYTON CT",PRINCETON,NJ,08540,0.965,range,40.387581,-74.66124
"106 WORTHS MILL LN",PRINCETON,NJ,08540,0.965,range,40.323178,-74.686457
"345 NASSAU ST 3",PRINCETON,NJ,08540,0.933,range,40.354021,-74.645388
"1 ORCHARD CIR",PRINCETON,NJ,08540,0.965,range,40.347065,-74.670116
"41 JUNIPER ROW",PRINCETON,NJ,08540,0.965,range,40.37594,-74.651524
"18 CUYLER RD",PRINCETON,NJ,08540,0.965,range,40.366005,-74.660942
"361 NASSAU ST",PRINCETON,NJ,08540,0.965,range,40.354329,-74.644361
"173 NASSAU ST",PRINCETON,NJ,08542,1.0,range,40.350928,-74.655852
"51 SOUTHERN WAY",PRINCETON,NJ,08540,0.965,range,40.349923,-74.640419
"45 HARRIS RD",PRINCETON,NJ,08540,0.965,range,40.358377,-74.660517
"97 HARTLEY AVE",PRINCETON,NJ,08540,0.965,range,40.34625,-74.639766
"913 MERCER RD",PRINCETON,NJ,08540,0.965,range,40.319793,-74.685986
"16 MCCOMB RD",PRINCETON,NJ,08540,0.965,range,40.378192,-74.653847
"11 GREENBRIER ROW",PRINCETON,NJ,08540,0.943,range,40.376814,-74.650437
"25 RUNNING CEDAR RD",PRINCETON,NJ,08540,0.777,range,40.354579,-74.641655
"59 TALBOT LN",PRINCETON,NJ,08540,0.965,range,40.321206,-74.689842
"252 SNOWDEN LN",PRINCETON,NJ,08540,0.965,range,40.364485,-74.642399
"43 MAPLE ST",PRINCETON,NJ,08542,1.0,range,40.354442,-74.650689
"15 EDWARDS PL",PRINCETON,NJ,08540,0.965,range,40.346945,-74.661971
"495 PRINCETON-KINGSTON RD",PRINCETON,NJ,08540,0.965,range,40.357406,-74.638037
"2 PHEASANT HILL RD",PRINCETON,NJ,08540,0.786,street,40.357853,-74.712875
"296 WENDOVER DR",PRINCETON,NJ,08540,0.965,range,40.352206,-74.693381
"7 LOCUST LN",PRINCETON,NJ,08540,0.965,range,40.358958,-74.634622
"25 GALLUP RD",PRINCETON,NJ,08540,0.965,range,40.31693,-74.689117
"263 WALNUT LN",PRINCETON,NJ,08540,0.965,range,40.36205,-74.656262
"210 WINANT RD",PRINCETON,NJ,08540,0.965,range,40.338463,-74.683266
"32 FITCH WAY",PRINCETON,NJ,08540,0.965,range,40.378035,-74.681161
"21 EDWARDS PL 2",PRINCETON,NJ,08540,0.936,range,40.34691,-74.662032
"26 LEICESTER CT",PRINCETON,NJ,08540,0.965,range,40.329238,-74.688015
"26 LEICESTER CT",PRINCETON,NJ,08540,0.965,range,40.329238,-74.688015
"4 CHARLTON ST",PRINCETON,NJ,08540,0.965,range,40.351339,-74.654054
"138 POE RD",PRINCETON,NJ,08540,0.965,range,40.368732,-74.63117
"22 CAMERON CT",PRINCETON,NJ,08540,0.965,range,40.356014,-74.646389
"22 CAMERON CT",PRINCETON,NJ,08540,0.965,range,40.356014,-74.646389
"79 ERDMAN AVE",PRINCETON,NJ,08540,0.965,range,40.360286,-74.645209
"114 LAMBERT DR",PRINCETON,NJ,08540,0.965,range,40.340547,-74.698079
"49 ERDMAN AVE",PRINCETON,NJ,08540,0.965,range,40.359657,-74.64626
"90 LAMBERT DR",PRINCETON,NJ,08540,0.965,range,40.34055,-74.698214
"59 TALBOT LN",PRINCETON,NJ,08540,0.965,range,40.321206,-74.689842
"1 CAMERON CT",PRINCETON,NJ,08540,0.965,range,40.355717,-74.646206
"173 MANSGROVE RD",PRINCETON,NJ,08540,0.965,range,40.368589,-74.662872
"97 RANDALL RD",PRINCETON,NJ,08540,0.965,range,40.368365,-74.646993
"231 STATE RD",PRINCETON,NJ,08540,0.965,range,40.369914,-74.663206
"231 STATE RD",PRINCETON,NJ,08540,0.965,range,40.369914,-74.663206
"41 BATTLE RD",PRINCETON,NJ,08540,0.965,range,40.337833,-74.668281
"210 WINANT RD",PRINCETON,NJ,08540,0.965,range,40.338463,-74.683266
"80 SPRUCE ST",PRINCETON,NJ,08542,1.0,range,40.354511,-74.652529
"80 SPRUCE ST",PRINCETON,NJ,08542,1.0,range,40.354511,-74.652529
"2 PHEASANT HILL RD",PRINCETON,NJ,08540,0.786,street,40.357853,-74.712875
"118 LINDEN LN",PRINCETON,NJ,08540,0.965,range,40.35781,-74.650976
"34 LITTLEBROOK RD",PRINCETON,NJ,08540,0.965,range,40.362004,-74.636544
"60 LAUREL RD",PRINCETON,NJ,08540,0.965,range,40.366344,-74.663165
"60 LAUREL RD",PRINCETON,NJ,08540,0.965,range,40.366344,-74.663165
"17 HULFISH ST B",PRINCETON,NJ,08542,0.971,range,40.350403,-74.66342
"29 CUYLER RD",PRINCETON,NJ,08540,0.965,range,40.366113,-74.660616
"210 PROSPECT AVE",PRINCETON,NJ,08540,0.965,range,40.351168,-74.642821
"10 FOULET DR",PRINCETON,NJ,08540,0.965,range,40.367135,-74.669318
"38 CARNAHAN PL",PRINCETON,NJ,08540,0.965,range,40.359342,-74.662219
"25 LEIGH AVE",PRINCETON,NJ,08542,1.0,range,40.35634,-74.663738
"38 PARDOE RD",PRINCETON,NJ,08540,0.965,range,40.355028,-74.673843
"77 RIVERSIDE DR",PRINCETON,NJ,08540,0.843,range,40.354109,-74.637534
"27 ROSS STEVENSON CIR",PRINCETON,NJ,08540,0.965,range,40.379261,-74.658899
"24 WILTON ST",PRINCETON,NJ,08540,0.965,range,40.354415,-74.642742
"88 MAGNOLIA LN",PRINCETON,NJ,08540,0.965,range,40.365303,-74.638339
"52 LEIGH AVE B",PRINCETON,NJ,08542,0.967,range,40.356026,-74.66505
"109 PARKSIDE DR",PRINCETON,NJ,08540,0.965,range,40.33302,-74.679788
"472 PRINCETON-KINGSTON RD",PRINCETON,NJ,08540,0.965,range,40.356935,-74.638807
"19 HASLET AVE",PRINCETON,NJ,08540,0.965,range,40.337932,-74.666148
"269 SHADYBROOK LN",PRINCETON,NJ,08540,0.965,range,40.368188,-74.634088
"93 MACLEAN CIR",PRINCETON,NJ,08540,0.965,range,40.346428,-74.634453
"141 SPRUCE ST",PRINCETON,NJ,08542,1.0,range,40.355205,-74.649985
"101 HAMILTON AVE",PRINCETON,NJ,08540,0.965,range,40.355208,-74.653419
"302 STONE CLIFF RD",PRINCETON,NJ,08540,0.965,range,40.351605,-74.706986
"86 BEECH HOLLOW LN",PRINCETON,NJ,08540,0.965,range,40.373372,-74.691791
"25 RACE ST",PRINCETON,NJ,08542,1.0,range,40.356209,-74.667222
"558 EWING ST",PRINCETON,NJ,08540,0.965,range,40.367545,-74.657071
"57 N TULANE ST",PRINCETON,NJ,08542,1.0,range,40.351979,-74.658999
"48 CAMERON CT",PRINCETON,NJ,08540,0.965,range,40.3564,-74.646757
"317 BRICKHOUSE RD",PRINCETON,NJ,08540,0.965,range,40.330249,-74.683956
"146 HODGE RD",PRINCETON,NJ,08540,0.965,range,40.349079,-74.672259
"15 GOVERNORS LN",PRINCETON,NJ,08540,0.965,range,40.369815,-74.648256
"28 SCOTT LN",PRINCETON,NJ,08540,0.965,range,40.355317,-74.643522
"43 PARK PL",PRINCETON,NJ,08542,1.0,range,40.351883,-74.655921
"20 MADISON ST 3",PRINCETON,NJ,08542,0.971,range,40.352008,-74.656589
"537 STOCKTON ST",PRINCETON,NJ,08540,0.965,range,40.334323,-74.680331
"96 JEFFERSON RD",PRINCETON,NJ,08540,0.965,range,40.356442,-74.658133
"3 BILLIE ELLIS LN",PRINCETON,NJ,08540,0.965,range,40.388931,-74.660122
"109 PARKSIDE DR",PRINCETON,NJ,08540,0.965,range,40.33302,-74.679788
"62 REDDING CIR",PRINCETON,NJ,08540,0.965,range,40.372467,-74.659428
"225 STATE RD",PRINCETON,NJ,08540,0.965,range,40.369675,-74.663254
"81 PRETTY BROOK RD",PRINCETON,NJ,08540,0.965,range,40.358484,-74.69016
"200 GROVER AVE",PRINCETON,NJ,08540,0.965,range,40.366951,-74.650254
"160 LEABROOK LN",PRINCETON,NJ,08540,0.965,range,40.367159,-74.645277
"81 PRETTY BROOK RD",PRINCETON,NJ,08540,0.965,range,40.358484,-74.69016
"19 DERWENT DR",PRINCETON,NJ,08540,0.965,range,40.3612,-74.695695
"300 ELM RD 242",PRINCETON,NJ,08540,0.855,range,40.352522,-74.679184
"231 DODDS LN",PRINCETON,NJ,08540,0.965,range,40.372255,-74.628721
"312 N HARRISON ST",PRINCETON,NJ,08540,0.965,range,40.363374,-74.65203
"3 SHIRLEY CT",PRINCETON,NJ,08542,1.0,range,40.353588,-74.661427
"143 JEFFERSON RD",PRINCETON,NJ,08540,0.965,range,40.35848,-74.659018
"237 CHRISTOPHER DR",PRINCETON,NJ,08540,0.965,range,40.349039,-74.700258
"3 SHIRLEY CT",PRINCETON,NJ,08542,1.0,range,40.353588,-74.661427
"22 RIVERSIDE DR",PRINCETON,NJ,08540,0.868,street,40.355608,-74.638819
"59 MORAN AVE",PRINCETON,NJ,08540,0.803,range,40.37003,-74.626681
"728 BUNN DR 321A",PRINCETON,NJ,08540,0.653,street,40.376335,-74.652324
"35 STONEWALL CIR",PRINCETON,NJ,08540,0.965,range,40.381426,-74.673852
"19 BERTRAND DR",PRINCETON,NJ,08540,0.965,range,40.372512,-74.634031
"58 AUDUBON LN",PRINCETON,NJ,08540,0.965,range,40.345915,-74.703756
"31 CLAY ST",PRINCETON,NJ,08542,1.0,range,40.355588,-74.662996
"6 MAPLE TERR",PRINCETON,NJ,08542,1.0,range,40.356188,-74.661349
"28 EDWARDS PL",PRINCETON,NJ,08540,0.965,range,40.346872,-74.662098
"425 ALEXANDER ST",PRINCETON,NJ,08540,0.652,street,40.331806,-74.652389
"0 MARSHALL ST 219-C",PRINCETON,NJ,08540,0.524,street,40.348636,-74.639884
"165 JEFFERSON RD",PRINCETON,NJ,08540,0.965,range,40.359168,-74.659347
"226 DRAKES CORNER RD",PRINCETON,NJ,08540,0.965,range,40.370573,-74.705261
"226 JEFFERSON RD",PRINCETON,NJ,08540,0.965,range,40.36156,-74.659654
"144 RIVERSIDE DR",PRINCETON,NJ,08540,0.965,range,40.352823,-74.636385
"38 WIGGINS ST 1",PRINCETON,NJ,08540,0.936,range,40.353018,-74.657896
"27 WOODLAND DR",PRINCETON,NJ,08540,0.965,range,40.369597,-74.664581
"78 LOVERS LN",PRINCETON,NJ,08540,0.965,range,40.341302,-74.672223
"9 HILLTOP DR",PRINCETON,NJ,08540,0.965,range,40.371281,-74.662863
"92 JEFFERSON RD",PRINCETON,NJ,08540,0.965,range,40.356321,-74.658093
"410 NASSAU ST",PRINCETON,NJ,08540,0.965,range,40.355198,-74.642515
"410 NASSAU ST",PRINCETON,NJ,08540,0.965,range,40.355198,-74.642515
"317 WITHERSPOON ST",PRINCETON,NJ,08542,1.0,range,40.358523,-74.663573
"311 STATE RD",PRINCETON,NJ,08540,0.965,range,40.372363,-74.662525
"232 SHADYBROOK LN",PRINCETON,NJ,08540,0.965,range,40.369874,-74.633256
"227 PROSPECT AVE",PRINCETON,NJ,08540,0.965,range,40.351421,-74.641796
"88 MAGNOLIA LN",PRINCETON,NJ,08540,0.965,range,40.365303,-74.638339
"5 FISHER AVE",PRINCETON,NJ,08540,0.965,range,40.358601,-74.646056
"4 LAWRENCE DR",PRINCETON,NJ,08540,0.805,range,40.081842,-74.546306
"45 PINE ST",PRINCETON,NJ,08542,1.0,range,40.353392,-74.65118
"13 GREENBRIER ROW",PRINCETON,NJ,08540,0.943,range,40.376807,-74.650425
"622 ROSEDALE RD",PRINCETON,NJ,08540,0.965,range,40.342789,-74.704323
"9 STONEWALL CIR",PRINCETON,NJ,08540,0.965,range,40.380188,-74.675173
"13 GREENBRIER ROW",PRINCETON,NJ,08540,0.943,range,40.376807,-74.650425
"256 JOHN ST",PRINCETON,NJ,08542,1.0,range,40.355806,-74.664688
"100 LONGVIEW DR",PRINCETON,NJ,08540,0.965,range,40.348475,-74.63256
"4 GEORGE DR",PRINCETON,NJ,08540,0.732,range,40.366928,-74.944329
"32 BIRCH AVE",PRINCETON,NJ,08542,1.0,range,40.357095,-74.663695
"86 OLDEN LN",PRINCETON,NJ,08540,0.868,street,40.334588,-74.667206
"41 PINE ST",PRINCETON,NJ,08542,1.0,range,40.353296,-74.651154
"131 JOHN ST",PRINCETON,NJ,08542,1.0,range,40.352501,-74.663192
"173 JOHN ST 1",PRINCETON,NJ,08542,0.958,range,40.353769,-74.663769
"179 LONGVIEW DR",PRINCETON,NJ,08540,0.965,range,40.346321,-74.630911
"28 MERCER ST",PRINCETON,NJ,08540,0.965,range,40.34725,-74.664147
"511 EWING ST",PRINCETON,NJ,08540,0.965,range,40.367074,-74.656757
"38 BENJAMIN RUSH LN",PRINCETON,NJ,08540,0.965,range,40.330075,-74.685751
"11 WILLOW ST",PRINCETON,NJ,08542,1.0,range,40.352717,-74.655256
"0 KING ST 219A",PRINCETON,NJ,08540,0.532,street,40.34918,-74.638797
"11 WALKER DR",PRINCETON,NJ,08540,0.965,range,40.344702,-74.699086
"145 HODGE RD",PRINCETON,NJ,08540,0.965,range,40.349096,-74.67225
"168 LAUREL CIR",PRINCETON,NJ,08540,0.965,range,40.370768,-74.661577
"130 ARRETON RD",PRINCETON,NJ,08540,0.965,range,40.382956,-74.667975
"115 SHADYBROOK LN",PRINCETON,NJ,08540,0.965,range,40.369899,-74.629058
"51 SOUTHERN WAY",PRINCETON,NJ,08540,0.965,range,40.349923,-74.640419
"203 BIRCH AVE",PRINCETON,NJ,08542,1.0,range,40.355913,-74.667778
"72 GULICK RD",PRINCETON,NJ,08540,0.965,range,40.367478,-74.628963
"33 GOVERNORS LN",PRINCETON,NJ,08540,0.965,range,40.369569,-74.64913
"39 UNIVERSITY PL",PRINCETON,NJ,08540,0.965,range,40.346877,-74.661744
"132 ELM RD",PRINCETON,NJ,08540,0.965,range,40.346401,-74.674648
"33 ROSEDALE RD",PRINCETON,NJ,08540,0.965,range,40.347914,-74.677835
"121 BROADMEAD ST",PRINCETON,NJ,08540,0.965,range,40.347881,-74.644204
"120 MERCER ST",PRINCETON,NJ,08540,0.965,range,40.343059,-74.66739
"14 CALDWELL DR",PRINCETON,NJ,08540,0.965,range,40.374173,-74.630081
"63 STANWORTH LN",PRINCETON,NJ,08540,0.965,range,40.354555,-74.666769
"52 WINANT RD",PRINCETON,NJ,08540,0.965,range,40.337334,-74.678166
"88 RUSSELL RD",PRINCETON,NJ,08540,0.965,range,40.336897,-74.682856
"7 HAMILTON AVE",PRINCETON,NJ,08540,0.772,street,40.355208,-74.653419
"82 JEFFERSON RD",PRINCETON,NJ,08540,0.965,range,40.356017,-74.657991
"13 PARK PL",PRINCETON,NJ,08542,1.0,range,40.351732,-74.656447
"747 PROSPECT AVE EXT",PRINCETON,NJ,08540,0.902,range,40.363943,-74.627101
"148 POE RD",PRINCETON,NJ,08540,0.965,range,40.369011,-74.631196
"39 HAMILTON AVE",PRINCETON,NJ,08540,0.773,street,40.355208,-74.653419
"0 BUTLER AVE 406A",PRINCETON,NJ,08540,0.56,street,40.346647,-74.63994
"74 CLAY ST",PRINCETON,NJ,08542,1.0,range,40.355591,-74.664003
"189 CONSTITUTION DR",PRINCETON,NJ,08540,0.965,range,40.341112,-74.675839
"18 LEICESTER CT",PRINCETON,NJ,08540,0.965,range,40.329305,-74.688411
"471 WALNUT LN",PRINCETON,NJ,08540,0.965,range,40.367401,-74.658487
"54 W LAFAYETTE RD",PRINCETON,NJ,08540,0.941,range,40.350971,-74.673814
"0 FACULTY RD HIB 7V",PRINCETON,NJ,08540,0.739,street,40.337896,-74.656948
"63 STANWORTH LN",PRINCETON,NJ,08540,0.965,range,40.354555,-74.666769
"30 W CONSTITUTION HILL",PRINCETON,NJ,08540,0.931,range,40.346239,-74.678631
"58 DAVID BREARLEY CT",PRINCETON,NJ,08540,0.946,range,40.387538,-74.660197
"175 BOUVANT DR",PRINCETON,NJ,08540,0.965,range,40.372462,-74.680273
"4 ORCHARD CIR",PRINCETON,NJ,08540,0.965,range,40.347058,-74.670128
"173 A MANSGROVE RD",PRINCETON,NJ,08540,0.941,range,40.368589,-74.662872
"249 RIVERSIDE DR",PRINCETON,NJ,08540,0.965,range,40.351111,-74.632621
"4 GEORGE DR",PRINCETON,NJ,08540,0.732,range,40.366928,-74.944329
"136 SPRUCE ST",PRINCETON,NJ,08542,1.0,range,40.355172,-74.65007
"51 CLOVER LN",PRINCETON,NJ,08540,0.965,range,40.360944,-74.641496
"63 ETTL CIR",PRINCETON,NJ,08540,0.657,street,40.347757,-74.703025
"301 WESTERN WAY",PRINCETON,NJ,08540,0.965,range,40.350457,-74.641654
"549 GREAT RD 1",PRINCETON,NJ,08540,0.929,range,40.363489,-74.687693
"61 LEIGH AVE",PRINCETON,NJ,08542,1.0,range,40.355845,-74.665524
"125 ST CLAIR CT",PRINCETON,NJ,08540,0.553,street,40.367025,-74.656729
"125 ST CLAIR CT",PRINCETON,NJ,08540,0.553,street,40.367025,-74.656729
"65 STOCKTON ST",PRINCETON,NJ,08540,0.965,range,40.346487,-74.667071
"62 HARTLEY AVE",PRINCETON,NJ,08540,0.965,range,40.345852,-74.640802
"146 N STANWORTH DR",PRINCETON,NJ,08540,0.965,range,40.355194,-74.666384
"164 HIGHLAND TERR",PRINCETON,NJ,08540,0.965,range,40.373936,-74.689967
"227 310 ELM RD",PRINCETON,NJ,08540,0.855,range,40.350434,-74.677663
"164 HIGHLAND TERR",PRINCETON,NJ,08540,0.965,range,40.373936,-74.689967
"88 MOUNTAIN AVE",PRINCETON,NJ,08540,0.965,range,40.356501,-74.673196
"52 REDDING CIR",PRINCETON,NJ,08540,0.965,range,40.372455,-74.659405
"19 FLEMING WAY",PRINCETON,NJ,08540,0.965,range,40.328504,-74.685426
"56 BATTLE RD",PRINCETON,NJ,08540,0.965,range,40.337255,-74.668629
"22 ROBERT RD",PRINCETON,NJ,08540,0.965,range,40.354443,-74.63899
"42 E MARION RD",PRINCETON,NJ,08540,0.9,range,40.370426,-74.627898
"42 E MARION RD",PRINCETON,NJ,08540,0.9,range,40.370426,-74.627898
"42 DORANN AVE",PRINCETON,NJ,08540,0.965,range,40.361108,-74.647791
"14 SPRING ST 2",PRINCETON,NJ,08542,0.967,range,40.350996,-74.659959
"314 BRICKHOUSE RD",PRINCETON,NJ,08540,0.965,range,40.330216,-74.683947
"55 ERDMAN AVE",PRINCETON,NJ,08540,0.965,range,40.359783,-74.64605
"64 CALDWELL DR",PRINCETON,NJ,08540,0.965,range,40.37584,-74.630156
"87 LONGVIEW DR",PRINCETON,NJ,08540,0.965,range,40.3499,-74.633707
"463 PROSPECT AVE EXT",PRINCETON,NJ,08540,0.902,range,40.356382,-74.633058
"36 MOORE ST 15",PRINCETON,NJ,08542,0.935,range,40.353149,-74.655387
"31 GOVERNORS LN",PRINCETON,NJ,08540,0.965,range,40.369612,-74.649051
"75 ALEXANDER ST",PRINCETON,NJ,08540,0.868,street,40.34415,-74.661781
"37 MOORE ST 3",PRINCETON,NJ,08542,0.963,range,40.353175,-74.655398
"37 PHEASANT HILL RD",PRINCETON,NJ,08540,0.965,range,40.359116,-74.709644
"51 CLOVER LN",PRINCETON,NJ,08540,0.965,range,40.360944,-74.641496
"60 PARKSIDE DR",PRINCETON,NJ,08540,0.965,range,40.332741,-74.678223
"12 BOUDINOT ST",PRINCETON,NJ,08540,0.965,range,40.349302,-74.666394
"51 HAWTHORNE AVE",PRINCETON,NJ,08540,0.965,range,40.355644,-74.6555
"614 BRICKHOUSE RD",PRINCETON,NJ,08540,0.965,range,40.328855,-74.684732
"39 WILKINSON WAY",PRINCETON,NJ,08540,0.965,range,40.326784,-74.685587
"775 MT LUCAS RD 302",PRINCETON,NJ,08540,0.819,range,40.386653,-74.653872
"133 MANSGROVE RD",PRINCETON,NJ,08540,0.965,range,40.368662,-74.663189
"131 JOHN ST",PRINCETON,NJ,08542,1.0,range,40.352501,-74.663192
"22 JEFFERSON RD",PRINCETON,NJ,08540,0.965,range,40.353793,-74.656778
"175 BIRCH AVE",PRINCETON,NJ,08542,1.0,range,40.356049,-74.667423
"10 BAYARD LN 8",PRINCETON,NJ,08540,0.933,range,40.34871,-74.664689
"30 CASTLE HOWARD CT A",PRINCETON,NJ,08540,0.946,range,40.356731,-74.633826
"13 CAMPBELTON CIR",PRINCETON,NJ,08540,0.965,range,40.347774,-74.670966
"56 LEABROOK LN",PRINCETON,NJ,08540,0.965,range,40.364113,-74.644365
"3 WILKINSON WAY",PRINCETON,NJ,08540,0.965,range,40.325643,-74.683356
"292 RUSSELL RD",PRINCETON,NJ,08540,0.965,range,40.340829,-74.689941
"930 GREAT RD",PRINCETON,NJ,08540,0.965,range,40.368031,-74.694789
"735 PROSPECT AVE EXT",PRINCETON,NJ,08540,0.902,range,40.363651,-74.627281
"34 PARKSIDE DR",PRINCETON,NJ,08540,0.965,range,40.331865,-74.677915
"49 PARDOE RD",PRINCETON,NJ,08540,0.965,range,40.355191,-74.673912
"87 LONGVIEW DR",PRINCETON,NJ,08540,0.965,range,40.3499,-74.633707
"83 JEFFERSON RD",PRINCETON,NJ,08540,0.965,range,40.356084,-74.658014
"221 MOORE ST",PRINCETON,NJ,08540,0.965,range,40.360736,-74.658681
"175 HIGHLAND TERR",PRINCETON,NJ,08540,0.965,range,40.374319,-74.69014
"175 HIGHLAND TERR",PRINCETON,NJ,08540,0.965,range,40.374319,-74.69014
"184 PROSPECT AVE",PRINCETON,NJ,08540,0.965,range,40.350741,-74.644361
"1 MARKHAM RD 1A",PRINCETON,NJ,08540,0.912,range,40.354466,-74.643945
"208 REDDING CIR 208",PRINCETON,NJ,08540,0.898,range,40.372638,-74.659767
"39 WILKINSON WAY",PRINCETON,NJ,08540,0.965,range,40.326784,-74.685587
"152 GUYOT AVE",PRINCETON,NJ,08540,0.965,range,40.360847,-74.658098
"39 LONGVIEW DR",PRINCETON,NJ,08540,0.965,range,40.350929,-74.6345
"413 EWING ST",PRINCETON,NJ,08540,0.965,range,40.364324,-74.654671
"152 GUYOT AVE",PRINCETON,NJ,08540,0.965,range,40.360847,-74.658098
"34 PARKSIDE DR",PRINCETON,NJ,08540,0.965,range,40.331865,-74.677915
"8 HAGEMAN LN",PRINCETON,NJ,08540,0.965,range,40.36856,-74.71199
"225 MOUNTAIN AVE",PRINCETON,NJ,08540,0.965,range,40.353576,-74.679646
"57 N TULANE ST",PRINCETON,NJ,08542,1.0,range,40.351979,-74.658999
"211 REDDING CIR",PRINCETON,NJ,08540,0.965,range,40.372642,-74.659775
"83 RANDOM RD",PRINCETON,NJ,08540,0.965,range,40.363327,-74.632094
"192 BROOKSTONE DR",PRINCETON,NJ,08540,0.965,range,40.350153,-74.690796
"219 VALLEY RD",PRINCETON,NJ,08540,0.965,range,40.363339,-74.656276
"0 FACULTY RD HIB 1S",PRINCETON,NJ,08540,0.739,street,40.337896,-74.656948
"63 HEMLOCK CIR",PRINCETON,NJ,08540,0.965,range,40.352396,-74.632129
"273 GRIGGS DR",PRINCETON,NJ,08540,0.965,range,40.386547,-74.659234
"305 PROSPECT AVE",PRINCETON,NJ,08540,0.965,range,40.352585,-74.638613
"80 ROBERT RD",PRINCETON,NJ,08540,0.965,range,40.353019,-74.639263
"92 BATTLE RD",PRINCETON,NJ,08540,0.965,range,40.335857,-74.670234
"80 LAFAYETTE RD",PRINCETON,NJ,08540,0.965,range,40.351146,-74.674655
"15 EDWARDS PL",PRINCETON,NJ,08540,0.965,range,40.346945,-74.661971
"24 REDDING CIR",PRINCETON,NJ,08540,0.965,range,40.372423,-74.65934
"37 BANK ST 1",PRINCETON,NJ,08542,0.958,range,40.349273,-74.663322
"29 LINDEN LN",PRINCETON,NJ,08540,0.965,range,40.354254,-74.64968
"31 RANDALL RD",PRINCETON,NJ,08540,0.965,range,40.366414,-74.647088
"206 SNOWDEN LN",PRINCETON,NJ,08540,0.965,range,40.363044,-74.643187
"12 BOUDINOT ST",PRINCETON,NJ,08540,0.965,range,40.349302,-74.666394
"14 CALDWELL DR",PRINCETON,NJ,08540,0.965,range,40.374173,-74.630081
"30 HOWE CIR",PRINCETON,NJ,08540,0.965,range,40.352143,-74.634596
"42 BENJAMIN RUSH LN",PRINCETON,NJ,08540,0.965,range,40.33004,-74.685693
"29 LINWOOD CIR",PRINCETON,NJ,08540,0.965,range,40.362902,-74.644673
"34 VANDEVENTER AVE 3",PRINCETON,NJ,08542,0.98,range,40.351695,-74.657804
"28 BIRCH AVE",PRINCETON,NJ,08542,1.0,range,40.357127,-74.663611
"37 JEFFERSON RD",PRINCETON,NJ,08540,0.965,range,40.354099,-74.657
"468 STATE RD",PRINCETON,NJ,08540,0.965,range,40.376235,-74.66315
"5 CAMPBELL WOODS WAY",PRINCETON,NJ,08540,0.965,range,40.379968,-74.655395
"43 PETTIT PL",PRINCETON,NJ,08540,0.965,range,40.377614,-74.681851
"148 CEDAR LN",PRINCETON,NJ,08540,0.965,range,40.350835,-74.639264
"43 PETTIT PL",PRINCETON,NJ,08540,0.965,range,40.377614,-74.681851
"656 CHERRY HILL RD",PRINCETON,NJ,08540,0.965,range,40.381994,-74.677854
"111 JEFFERSON RD",PRINCETON,NJ,08540,0.868,street,40.357223,-74.65858
"3 EVELYN PL",PRINCETON,NJ,08540,0.965,range,40.353647,-74.64667
"3 EVELYN PL",PRINCETON,NJ,08540,0.965,range,40.353647,-74.64667
"161 EWING ST",PRINCETON,NJ,08540,0.965,range,40.357813,-74.649899
"24 MERCER ST",PRINCETON,NJ,08540,0.965,range,40.347436,-74.664023
"914 GREAT RD",PRINCETON,NJ,08540,0.965,range,40.367642,-74.694083
"32 LYTLE ST",PRINCETON,NJ,08542,1.0,range,40.355084,-74.662654
"63 ETTL CIR",PRINCETON,NJ,08540,0.657,street,40.347757,-74.703025
"32 LYTLE ST",PRINCETON,NJ,08542,1.0,range,40.355084,-74.662654
"31 BROADRIPPLE DR",PRINCETON,NJ,08540,0.965,range,40.365592,-74.636999
"728 BUNN DR",PRINCETON,NJ,08540,0.77,street,40.376335,-74.652324
"111 JEFFERSON RD",PRINCETON,NJ,08540,0.868,street,40.357223,-74.65858
"15 ROBERT RD",PRINCETON,NJ,08540,0.965,range,40.354593,-74.638597
"273 WESTERN WAY",PRINCETON,NJ,08540,0.965,range,40.350227,-74.642326
"57 BATTLE RD",PRINCETON,NJ,08540,0.965,range,40.337228,-74.668645
"6 MEETINGHOUSE CT",PRINCETON,NJ,08540,0.763,range,40.037179,-74.622442
"70 CLAY ST 70",PRINCETON,NJ,08542,0.927,range,40.355601,-74.663896
"7 GREENHOLM",PRINCETON,NJ,08540,0.912,range,40.350198,-74.665617
"250 JOHN ST",PRINCETON,NJ,08542,1.0,range,40.355658,-74.664633
"28 MCCOMB RD",PRINCETON,NJ,08540,0.965,range,40.377996,-74.653201
"44 BIRCH AVE",PRINCETON,NJ,08542,1.0,range,40.356998,-74.663949
"2 MERSHON DR",PRINCETON,NJ,08540,0.965,range,40.355497,-74.646774
"28 WITHERSPOON LN",PRINCETON,NJ,08542,1.0,range,40.355275,-74.661967
"175 JOHN ST 1",PRINCETON,NJ,08542,0.958,range,40.353845,-74.663795
"41 SPRING ST 4",PRINCETON,NJ,08542,0.967,range,40.351331,-74.658689
"188 CHERRY VALLEY RD",PRINCETON,NJ,08540,0.965,range,40.38486,-74.672541
"188 CHERRY VALLEY RD",PRINCETON,NJ,08540,0.965,range,40.38486,-74.672541
"155 PATTON AVE",PRINCETON,NJ,08540,0.965,range,40.352803,-74.64131
"184 SHADYBROOK LN",PRINCETON,NJ,08540,0.965,range,40.370409,-74.63073
"32 FLEMING WAY",PRINCETON,NJ,08540,0.965,range,40.32835,-74.685682
"161 BALCORT DR",PRINCETON,NJ,08540,0.936,range,40.378976,-74.670372
"481 CHRISTOPHER DR",PRINCETON,NJ,08540,0.965,range,40.351487,-74.704665
"68 WHEATSHEAF LN",PRINCETON,NJ,08540,0.965,range,40.358583,-74.638418
"50 STONE CLIFF RD",PRINCETON,NJ,08540,0.965,range,40.353,-74.704456
"24 EDWARDS PL",PRINCETON,NJ,08540,0.965,range,40.346896,-74.662057
"508 CHRISTOPHER DR",PRINCETON,NJ,08540,0.965,range,40.351403,-74.704902
"763 PRINCETON-KINGSTON RD",PRINCETON,NJ,08540,0.965,range,40.363547,-74.629072
"264 HAWTHORNE AVE",PRINCETON,NJ,08540,0.965,range,40.357184,-74.649427
"464 PRINCETON-KINGSTON RD",PRINCETON,NJ,08540,0.965,range,40.35676,-74.639092
"518 EWING ST",PRINCETON,NJ,08540,0.965,range,40.367117,-74.656782
"73 RANDOM RD",PRINCETON,NJ,08540,0.965,range,40.363098,-74.632221
"270 N HARRISON ST",PRINCETON,NJ,08540,0.965,range,40.36241,-74.6515
"133 LIBRARY PL",PRINCETON,NJ,08540,0.965,range,40.34903,-74.669783
"90 BATTLE RD",PRINCETON,NJ,08540,0.965,range,40.335945,-74.670151
"54 W LAFAYETTE RD",PRINCETON,NJ,08540,0.941,range,40.350971,-74.673814
"49 LEAVITT LN",PRINCETON,NJ,08540,0.965,range,40.359766,-74.643576
"90 BATTLE RD",PRINCETON,NJ,08540,0.965,range,40.335945,-74.670151
"16 ROBERT RD",PRINCETON,NJ,08540,0.965,range,40.35451,-74.638879
"232 JOHN ST",PRINCETON,NJ,08542,1.0,range,40.355214,-74.664394
"53 CALDWELL DR",PRINCETON,NJ,08540,0.965,range,40.375471,-74.63015
"40 JEFFERSON RD",PRINCETON,NJ,08540,0.965,range,40.354413,-74.657157
"296 EWING ST",PRINCETON,NJ,08540,0.965,range,40.360786,-74.65212
"54 ETTL CIR",PRINCETON,NJ,08540,0.786,street,40.347757,-74.703025
"225 STATE RD",PRINCETON,NJ,08540,0.965,range,40.369675,-74.663254
"87 ROLLINGMEAD",PRINCETON,NJ,08540,0.92,range,40.360073,-74.639091
"87 ROLLINGMEAD",PRINCETON,NJ,08540,0.92,range,40.360073,-74.639091
"516 PRINCETON-KINGSTON RD",PRINCETON,NJ,08540,0.965,range,40.357717,-74.63703
"47 SCOTT LN",PRINCETON,NJ,08540,0.965,range,40.355698,-74.643754
"96 HERRONTOWN RD",PRINCETON,NJ,08540,0.965,range,40.376957,-74.628579
"96 HERRONTOWN RD",PRINCETON,NJ,08540,0.965,range,40.376957,-74.628579
"26 MCCOMB RD",PRINCETON,NJ,08540,0.965,range,40.378034,-74.653282
"54 ETTL CIR",PRINCETON,NJ,08540,0.786,street,40.347757,-74.703025
"415 BRICKHOUSE RD",PRINCETON,NJ,08540,0.965,range,40.330235,-74.684369
"515 BRICKHOUSE RD",PRINCETON,NJ,08540,0.965,range,40.329406,-74.683974
"65 REDDING CIR",PRINCETON,NJ,08540,0.965,range,40.372472,-74.659437
"75 ALEXANDER ST",PRINCETON,NJ,08540,0.868,street,40.34415,-74.661781
"32 RANDALL RD",PRINCETON,NJ,08540,0.965,range,40.365684,-74.648036
"32 RANDALL RD",PRINCETON,NJ,08540,0.965,range,40.365684,-74.648036
"1154 STUART RD",PRINCETON,NJ,08540,0.965,range,40.368868,-74.685976
"30 GORDON WAY",PRINCETON,NJ,08540,0.965,range,40.356072,-74.645391
"22 WILSON RD",PRINCETON,NJ,08540,0.965,range,40.353639,-74.669419
"39 LONGVIEW DR",PRINCETON,NJ,08540,0.965,range,40.350929,-74.6345
"22 WILSON RD",PRINCETON,NJ,08540,0.965,range,40.353639,-74.669419
"60 NORTH RD",PRINCETON,NJ,08540,0.798,range,40.356357,-74.68573
"60 NORTH RD",PRINCETON,NJ,08540,0.798,range,40.356357,-74.68573
"910 PRINCETON-KINGSTON RD",PRINCETON,NJ,08540,0.965,range,40.367473,-74.626052
"910 PRINCETON-KINGSTON RD",PRINCETON,NJ,08540,0.965,range,40.367473,-74.626052
"155 DODDS LN",PRINCETON,NJ,08540,0.965,range,40.371449,-74.632896
"6 MEETINGHOUSE CT",PRINCETON,NJ,08540,0.763,range,40.037179,-74.622442
"57 BALSAM LN",PRINCETON,NJ,08540,0.965,range,40.352,-74.637581
"293 WITHERSPOON ST",PRINCETON,NJ,08542,1.0,range,40.357523,-74.663122
"23 DERWENT DR",PRINCETON,NJ,08540,0.965,range,40.361361,-74.695656
"583 STATE RD",PRINCETON,NJ,08540,0.965,range,40.379026,-74.663167
"65 DORANN AVE",PRINCETON,NJ,08540,0.965,range,40.361442,-74.647195
"26 TREWBRIDGE CT",PRINCETON,NJ,08540,0.432,street,40.301254,-74.525584
"171 BIRCH AVE",PRINCETON,NJ,08542,1.0,range,40.356068,-74.667372
"293 WITHERSPOON ST",PRINCETON,NJ,08542,1.0,range,40.357523,-74.663122
"200 JONATHAN DAYTON CT",PRINCETON,NJ,08540,0.965,range,40.387114,-74.661026
"508 QUAKER RD",PRINCETON,NJ,08540,0.965,range,40.319938,-74.683561
"11 WILLOW ST",PRINCETON,NJ,08542,1.0,range,40.352717,-74.655256
"67 ROBERT RD",PRINCETON,NJ,08540,0.965,range,40.353461,-74.639515
"338 FRANKLIN AVE",PRINCETON,NJ,08540,0.615,street,40.06175,-74.260938
"74 LEAVITT LN",PRINCETON,NJ,08540,0.965,range,40.360481,-74.644187
"24 MERCER ST",PRINCETON,NJ,08540,0.965,range,40.347436,-74.664023
"148 QUARRY LN",PRINCETON,NJ,08540,0.732,range,40.366967,-74.937435
"14 FAIRWAY DR",PRINCETON,NJ,08540,0.965,range,40.345126,-74.694512
"689 MERCER RD",PRINCETON,NJ,08540,0.965,range,40.326894,-74.680228
"448 WALNUT LN",PRINCETON,NJ,08540,0.965,range,40.366905,-74.658313
"15 MADISON ST",PRINCETON,NJ,08542,1.0,range,40.35194,-74.656562
"35 WOODSIDE LN",PRINCETON,NJ,08540,0.965,range,40.35537,-74.632623
"30 HARRIS RD",PRINCETON,NJ,08540,0.965,range,40.357798,-74.660186
"14 WINDERMERE WAY",PRINCETON,NJ,08540,0.965,range,40.361079,-74.698806
"50 ETTL CIR",PRINCETON,NJ,08540,0.794,street,40.347757,-74.703025
"80 MERCER ST",PRINCETON,NJ,08540,0.965,range,40.344719,-74.666108
"185 S HARRISON ST",PRINCETON,NJ,08540,0.965,range,40.348774,-74.641627
"45 PINE ST",PRINCETON,NJ,08542,1.0,range,40.353392,-74.65118
"0 MARSHALL ST 221C",PRINCETON,NJ,08540,0.524,street,40.348636,-74.639884
"84 CLOVER LN",PRINCETON,NJ,08540,0.965,range,40.362026,-74.641977
"152 N HARRISON ST",PRINCETON,NJ,08540,0.965,range,40.358555,-74.649022
"15 MADISON ST",PRINCETON,NJ,08542,1.0,range,40.35194,-74.656562
"536 MERCER RD",PRINCETON,NJ,08540,0.965,range,40.33012,-74.677546
"27 ROSEDALE RD",PRINCETON,NJ,08540,0.965,range,40.348029,-74.677532
"88 RUSSELL RD",PRINCETON,NJ,08540,0.965,range,40.336897,-74.682856
"306 NASSAU ST",PRINCETON,NJ,08540,0.965,range,40.353324,-74.647674
"28 VANDEVENTER AVE",PRINCETON,NJ,08542,1.0,range,40.351589,-74.657763
"323 FRANKLIN AVE",PRINCETON,NJ,08540,0.618,street,40.06175,-74.260938
"15 AIKEN AVE",PRINCETON,NJ,08540,0.965,range,40.351711,-74.648418
"112 RANDOM RD",PRINCETON,NJ,08540,0.965,range,40.363971,-74.631493
"40 SPRINGDALE RD",PRINCETON,NJ,08540,0.868,street,40.341042,-74.668071
"1038 PRINCETON-KINGSTON RD",PRINCETON,NJ,08540,0.965,range,40.369958,-74.624171
"18 GREEN ST",PRINCETON,NJ,08542,1.0,range,40.352492,-74.661264
"475 RIVERSIDE DR",PRINCETON,NJ,08540,0.965,range,40.358284,-74.630747
"56 FITCH WAY",PRINCETON,NJ,08540,0.965,range,40.378202,-74.680641
"0 FACULTY RD HIB 3W",PRINCETON,NJ,08540,0.739,street,40.337896,-74.656948
"184 WITHERSPOON ST A-3",PRINCETON,NJ,08542,0.961,range,40.354643,-74.661885
"42 ALLISON RD",PRINCETON,NJ,08540,0.965,range,40.346495,-74.672295
"33 SOUTHERN WAY",PRINCETON,NJ,08540,0.965,range,40.349667,-74.641032
"22 CHESTNUT ST",PRINCETON,NJ,08542,1.0,range,40.352923,-74.652499
"242 MOORE ST",PRINCETON,NJ,08540,0.965,range,40.360913,-74.658909
"716 PRINCETON-KINGSTON RD",PRINCETON,NJ,08540,0.965,range,40.362416,-74.630259
"0 MARSHALL ST 221C",PRINCETON,NJ,08540,0.524,street,40.348636,-74.639884
"74 MERCER ST",PRINCETON,NJ,08540,0.965,range,40.345033,-74.665579
"85 WORTHS MILL LN",PRINCETON,NJ,08540,0.965,range,40.323249,-74.686034
"74 MERCER ST",PRINCETON,NJ,08540,0.965,range,40.345033,-74.665579
"27 WILKINSON WAY",PRINCETON,NJ,08540,0.965,range,40.326076,-74.685376
"102 SNOWDEN LN",PRINCETON,NJ,08540,0.843,range,40.3595,-74.641694
"102 SNOWDEN LN",PRINCETON,NJ,08540,0.843,range,40.3595,-74.641694
"40 CHESTNUT ST",PRINCETON,NJ,08542,1.0,range,40.353813,-74.652744
"111 HARRIS RD",PRINCETON,NJ,08540,0.965,range,40.360134,-74.661322
"401 NASSAU ST",PRINCETON,NJ,08540,0.965,range,40.354879,-74.643035
"26 MOORE ST",PRINCETON,NJ,08542,1.0,range,40.352748,-74.655175
"81 WESTCOTT RD",PRINCETON,NJ,08540,0.965,range,40.352336,-74.673808
"47 HARRIET DR",PRINCETON,NJ,08540,0.965,range,40.357483,-74.642545
"47 HARRIET DR",PRINCETON,NJ,08540,0.965,range,40.357483,-74.642545
"35 TREWBRIDGE CT",PRINCETON,NJ,08540,0.546,street,40.301254,-74.525584
"168 LAUREL CIR",PRINCETON,NJ,08540,0.965,range,40.370768,-74.661577
"138 FITZ RANDOLPH RD",PRINCETON,NJ,08540,0.965,range,40.348364,-74.646816
"8 WINFIELD RD",PRINCETON,NJ,08540,0.965,range,40.354403,-74.681561
"19 HASLET AVE",PRINCETON,NJ,08540,0.965,range,40.337932,-74.666148
"22 ROBERT RD",PRINCETON,NJ,08540,0.965,range,40.354443,-74.63899
"366 N HARRISON ST",PRINCETON,NJ,08540,0.965,range,40.364746,-74.653388
"372 DODDS LN",PRINCETON,NJ,08540,0.965,range,40.371598,-74.624427
"36 MOORE ST 7",PRINCETON,NJ,08542,0.963,range,40.353149,-74.655387
"35 JEFFERSON RD",PRINCETON,NJ,08540,0.965,range,40.353942,-74.656922
"302 JEFFERSON RD",PRINCETON,NJ,08540,0.965,range,40.362867,-74.660203
"161 PARKSIDE DR",PRINCETON,NJ,08540,0.965,range,40.331362,-74.679144
"385 WALNUT LN",PRINCETON,NJ,08540,0.965,range,40.365251,-74.657648
"241 WILLIAM LIVINGSTON CT",PRINCETON,NJ,08540,0.965,range,40.387855,-74.661501
"9 RUSSELL RD",PRINCETON,NJ,08540,0.965,range,40.336565,-74.679077
"229 PRETTY BROOK RD",PRINCETON,NJ,08540,0.965,range,40.360236,-74.697293
"227 WILLIAM LIVINGSTON CT",PRINCETON,NJ,08540,0.965,range,40.387744,-74.661817
"195 BIRCH AVE",PRINCETON,NJ,08542,1.0,range,40.355952,-74.667677
"241 WILLIAM LIVINGSTON CT",PRINCETON,NJ,08540,0.965,range,40.387855,-74.661501
"7 CLEVELAND LN",PRINCETON,NJ,08540,0.965,range,40.380695,-74.593406
"674 GREAT RD E",PRINCETON,NJ,08540,0.771,street,40.367819,-74.689304
"50 ETTL CIR",PRINCETON,NJ,08540,0.794,street,40.347757,-74.703025
"372 DODDS LN",PRINCETON,NJ,08540,0.965,range,40.371598,-74.624427
"21 VERNON CIR",PRINCETON,NJ,08540,0.965,range,40.355321,-74.629279
"613 SNOWDEN LN",PRINCETON,NJ,08540,0.965,range,40.375309,-74.637738
"26 CONISTON CT",PRINCETON,NJ,08540,0.965,range,40.359131,-74.689959
"197 STONE CLIFF RD",PRINCETON,NJ,08540,0.965,range,40.352311,-74.708232
"14 LAWRENCE DR 303",PRINCETON,NJ,08540,0.74,range,40.359402,-74.647982
"68 WHEATSHEAF LN",PRINCETON,NJ,08540,0.965,range,40.358583,-74.638418
"1742 W STUART RD",PRINCETON,NJ,08540,0.738,street,40.36663,-74.691959
"125 GRIGGS DR",PRINCETON,NJ,08540,0.965,range,40.387703,-74.662448
"476 CHRISTOPHER DR",PRINCETON,NJ,08540,0.965,range,40.351502,-74.704641
"28 CLAY ST",PRINCETON,NJ,08542,1.0,range,40.355597,-74.662936
"165 BERTRAND DR",PRINCETON,NJ,08540,0.965,range,40.374318,-74.628074
"104 LIBRARY PL",PRINCETON,NJ,08540,0.965,range,40.348334,-74.669297
"41 BROOKSTONE DR",PRINCETON,NJ,08540,0.965,range,40.346656,-74.693379
"672 PROSPECT AVE EXT",PRINCETON,NJ,08540,0.902,range,40.36216,-74.628143
"300 ELM RD 113",PRINCETON,NJ,08540,0.855,range,40.352522,-74.679184
"285 WENDOVER DR",PRINCETON,NJ,08540,0.965,range,40.352959,-74.693272
"686 PROSPECT AVE EXT",PRINCETON,NJ,08540,0.902,range,40.362504,-74.628006
"176 JONATHAN DAYTON CT",PRINCETON,NJ,08540,0.965,range,40.386909,-74.661874
"81 LEIGH AVE",PRINCETON,NJ,08542,1.0,range,40.355564,-74.666255
"256 JOHN ST",PRINCETON,NJ,08542,1.0,range,40.355806,-74.664688
"12 ROLLINGMEAD",PRINCETON,NJ,08540,0.92,range,40.35876,-74.640868
"18 RIVERSIDE DR",PRINCETON,NJ,08540,0.965,range,40.355859,-74.63908
"28 HUMBERT ST",PRINCETON,NJ,08542,1.0,range,40.353408,-74.658088
"214 CHERRY HILL RD",PRINCETON,NJ,08540,0.965,range,40.362814,-74.665268
"468 STATE RD",PRINCETON,NJ,08540,0.965,range,40.376235,-74.66315
"17 ARMOUR RD",PRINCETON,NJ,08540,0.965,range,40.345527,-74.670523
"606 EWING ST",PRINCETON,NJ,08540,0.965,range,40.369061,-74.658165
"170 N STANWORTH DR",PRINCETON,NJ,08540,0.965,range,40.355313,-74.665962
"261 JEFFERSON RD",PRINCETON,NJ,08540,0.965,range,40.362365,-74.660038
"21 MULBERRY ROW",PRINCETON,NJ,08540,0.965,range,40.376332,-74.65089
"236 WILLIAM LIVINGSTON CT",PRINCETON,NJ,08540,0.965,range,40.387812,-74.661624
"81 CLAY ST",PRINCETON,NJ,08542,1.0,range,40.355565,-74.66415
"156 N HARRISON ST",PRINCETON,NJ,08540,0.965,range,40.358698,-74.649113
"680 PROSPECT AVE EXT",PRINCETON,NJ,08540,0.902,range,40.362356,-74.628065
"42 VEBLEN CIR",PRINCETON,NJ,08540,0.965,range,40.334045,-74.673441
"183 JEFFERSON RD",PRINCETON,NJ,08540,0.965,range,40.359755,-74.65954
"30 CARNAHAN PL",PRINCETON,NJ,08540,0.965,range,40.359043,-74.662116
"53 W CONSTITUTION HILL",PRINCETON,NJ,08540,0.931,range,40.344416,-74.678977
"308 EDGERSTOUNE RD",PRINCETON,NJ,08540,0.943,range,40.342181,-74.689309
"133 JEFFERSON RD",PRINCETON,NJ,08540,0.965,range,40.358062,-74.658881
"36 GRASMERE WAY",PRINCETON,NJ,08540,0.965,range,40.36113,-74.696958
"40 HARRISON ST",PRINCETON,NJ,08540,0.965,range,40.352773,-74.644668
"536 ROSEDALE RD",PRINCETON,NJ,08540,0.965,range,40.344097,-74.69944
"260 GRIGGS DR",PRINCETON,NJ,08540,0.965,range,40.386408,-74.659266
"33 CLEVELAND LN",PRINCETON,NJ,08540,0.965,range,40.35178,-74.66997
"25 PINE ST A",PRINCETON,NJ,08542,0.958,range,40.352911,-74.651052
"580 LAKE DR",PRINCETON,NJ,08540,0.965,range,40.349241,-74.629839
"285 RIVERSIDE DR",PRINCETON,NJ,08540,0.965,range,40.351227,-74.631049
"33 VREELAND CT",PRINCETON,NJ,08540,0.965,range,40.340816,-74.679661
"21 HARRIS RD",PRINCETON,NJ,08540,0.965,range,40.35745,-74.660073
"60 WITTMER CT",PRINCETON,NJ,08540,0.965,range,40.368238,-74.632643
"287 EDGERSTOUNE RD",PRINCETON,NJ,08540,0.943,range,40.341664,-74.68835
"33 VREELAND CT",PRINCETON,NJ,08540,0.965,range,40.340816,-74.679661
"548 STOCKTON ST",PRINCETON,NJ,08540,0.965,range,40.334158,-74.680502
"87 HARRIS RD",PRINCETON,NJ,08540,0.965,range,40.359593,-74.660949
"87 HARRIS RD",PRINCETON,NJ,08540,0.965,range,40.359593,-74.660949
"69 FARRAND RD",PRINCETON,NJ,08540,0.965,range,40.343156,-74.680686
"69 FARRAND RD",PRINCETON,NJ,08540,0.965,range,40.343156,-74.680686
"18 STONEWALL CIR",PRINCETON,NJ,08540,0.965,range,40.380958,-74.673975
"150 LINDEN LN",PRINCETON,NJ,08540,0.965,range,40.36027,-74.652502
"18 ROLLINGMEAD",PRINCETON,NJ,08540,0.92,range,40.358875,-74.640756
"63 VAN DYKE RD 2",PRINCETON,NJ,08540,0.936,range,40.372071,-74.640515
"61 CLEARVIEW AVE",PRINCETON,NJ,08540,0.965,range,40.361914,-74.648534
"75 NORTH RD",PRINCETON,NJ,08540,0.798,range,40.356354,-74.685793
"33 LILAC LN",PRINCETON,NJ,08540,0.965,range,40.350826,-74.669258
"243 MERCER RD",PRINCETON,NJ,08540,0.965,range,40.338587,-74.670839
"47 ETTL CIR",PRINCETON,NJ,08540,0.687,street,40.347757,-74.703025
"150 LINDEN LN",PRINCETON,NJ,08540,0.965,range,40.36027,-74.652502
"39 QUARRY ST",PRINCETON,NJ,08542,1.0,range,40.353096,-74.662128
"20 ADAMS DR",PRINCETON,NJ,08540,0.965,range,40.356196,-74.629024
"40 MERCER ST",PRINCETON,NJ,08540,0.965,range,40.346698,-74.664465
"150 WITHERSPOON ST",PRINCETON,NJ,08542,1.0,range,40.353579,-74.66144
"294 JEFFERSON RD",PRINCETON,NJ,08540,0.965,range,40.362761,-74.660168
"60 PRINCE WILLIAM CT",PRINCETON,NJ,08540,0.965,range,40.356197,-74.635854
"187 LIBRARY PL",PRINCETON,NJ,08540,0.965,range,40.351105,-74.671593
"46 ETTL CIR",PRINCETON,NJ,08540,0.819,street,40.347757,-74.703025
"67 WOODLAND DR",PRINCETON,NJ,08540,0.965,range,40.370625,-74.664368
"53 DORANN AVE",PRINCETON,NJ,08540,0.965,range,40.36128,-74.647518
"67 WOODLAND DR",PRINCETON,NJ,08540,0.965,range,40.370625,-74.664368
"27 ARMOUR RD",PRINCETON,NJ,08540,0.965,range,40.345326,-74.670724
"24 GOVERNORS LN",PRINCETON,NJ,08540,0.965,range,40.36975,-74.648754
"24 GOVERNORS LN",PRINCETON,NJ,08540,0.965,range,40.36975,-74.648754
"23 SERGEANT ST",PRINCETON,NJ,08540,0.965,range,40.353855,-74.643439
"92 LINDEN LN",PRINCETON,NJ,08540,0.965,range,40.356787,-74.65064
"52 SPRUCE ST",PRINCETON,NJ,08542,1.0,range,40.354225,-74.653394
"44 NASSAU ST 44I",PRINCETON,NJ,08542,0.92,range,40.349135,-74.661688
"18 RIVERSIDE DR",PRINCETON,NJ,08540,0.965,range,40.355859,-74.63908
"93 CHRISTOPHER DR",PRINCETON,NJ,08540,0.965,range,40.346325,-74.6982
"249 STATE RD",PRINCETON,NJ,08540,0.965,range,40.370629,-74.662952
"16 WILLOW ST",PRINCETON,NJ,08542,1.0,range,40.352704,-74.65529
"16 OLDEN LN",PRINCETON,NJ,08540,0.965,range,40.337794,-74.669848
"955 GREAT RD 99",PRINCETON,NJ,08540,0.9,range,40.369369,-74.69502
"15 HOUGHTON RD",PRINCETON,NJ,08540,0.965,range,40.356443,-74.656395
"49 FITCH WAY",PRINCETON,NJ,08540,0.965,range,40.378153,-74.680792
"148 CEDAR LN",PRINCETON,NJ,08540,0.965,range,40.350835,-74.639264
"300 DODDS LN",PRINCETON,NJ,08540,0.965,range,40.372534,-74.627495
"98 RANDOM RD",PRINCETON,NJ,08540,0.965,range,40.363668,-74.631767
"15 HOUGHTON RD",PRINCETON,NJ,08540,0.965,range,40.356443,-74.656395
"159 HICKORY CT",PRINCETON,NJ,08540,0.965,range,40.361956,-74.657303
"970 GREAT RD",PRINCETON,NJ,08540,0.965,range,40.3697,-74.695019
"536 MERCER RD",PRINCETON,NJ,08540,0.965,range,40.33012,-74.677546
"3 HAMILTON AVE",PRINCETON,NJ,08540,0.772,street,40.355208,-74.653419
"40 VAN DYKE RD",PRINCETON,NJ,08540,0.965,range,40.371997,-74.641386
"64 SYCAMORE RD",PRINCETON,NJ,08540,0.965,range,40.349311,-74.639961
"60 WIGGINS ST 1",PRINCETON,NJ,08540,0.936,range,40.353496,-74.65663
"347 WENDOVER DR",PRINCETON,NJ,08540,0.965,range,40.35181,-74.69341
"347 WENDOVER DR",PRINCETON,NJ,08540,0.965,range,40.35181,-74.69341
"159 HICKORY CT",PRINCETON,NJ,08540,0.965,range,40.361956,-74.657303
"126 MOORE ST",PRINCETON,NJ,08540,0.965,range,40.355955,-74.656577
"226 DRAKES CORNER RD",PRINCETON,NJ,08540,0.965,range,40.370573,-74.705261
"656 PROSPECT AVE EXT",PRINCETON,NJ,08540,0.902,range,40.361767,-74.6283
"156 NEIL CT",PRINCETON,NJ,08540,0.965,range,40.330322,-74.685696
"347 PROSPECT AVE EXT",PRINCETON,NJ,08540,0.902,range,40.353531,-74.636821
"40 LINWOOD CIR",PRINCETON,NJ,08540,0.965,range,40.362756,-74.645027
"347 PROSPECT AVE EXT",PRINCETON,NJ,08540,0.902,range,40.353531,-74.636821
"76 HARRIS RD",PRINCETON,NJ,08540,0.965,range,40.35928,-74.660838
"207 MT LUCAS RD",PRINCETON,NJ,08540,0.892,range,40.368538,-74.661136
"202 EWING ST",PRINCETON,NJ,08540,0.965,range,40.358523,-74.650315
"202 EWING ST",PRINCETON,NJ,08540,0.965,range,40.358523,-74.650315
"55 PRINCE WILLIAM CT",PRINCETON,NJ,08540,0.965,range,40.356112,-74.635721
"265 HERRONTOWN RD",PRINCETON,NJ,08540,0.965,range,40.37724,-74.633538
"34 MERCER ST",PRINCETON,NJ,08540,0.965,range,40.346974,-74.664306
"121 RED HILL RD",PRINCETON,NJ,08540,0.965,range,40.366139,-74.665007
"54 REDDING CIR",PRINCETON,NJ,08540,0.965,range,40.372458,-74.65941
"321 NASSAU ST",PRINCETON,NJ,08540,0.965,range,40.353631,-74.646664
"179 BIRCH AVE",PRINCETON,NJ,08542,1.0,range,40.356029,-74.667473
"175 CLOVER LN",PRINCETON,NJ,08540,0.965,range,40.364394,-74.640739
"2 MAIDENHEAD RD",PRINCETON,NJ,08540,0.648,zip,40.363882,-74.64795
"30 CARNAHAN PL",PRINCETON,NJ,08540,0.965,range,40.359043,-74.662116
"179 LINDEN LN",PRINCETON,NJ,08540,0.965,range,40.360619,-74.652678
"188 HERRONTOWN RD",PRINCETON,NJ,08540,0.965,range,40.377119,-74.632722
"242 BULLOCK DR",PRINCETON,NJ,08540,0.965,range,40.326418,-74.684418
"280 GRIGGS DR",PRINCETON,NJ,08540,0.965,range,40.386631,-74.659228
"107 AUTUMN HILL RD",PRINCETON,NJ,08540,0.965,range,40.382581,-74.635416
"107 AUTUMN HILL RD",PRINCETON,NJ,08540,0.965,range,40.382581,-74.635416
"801 MT LUCAS RD",PRINCETON,NJ,08540,0.892,range,40.387136,-74.653162
"46 MARKHAM RD",PRINCETON,NJ,08540,0.965,range,40.353175,-74.642993
"51 PATTON AVE",PRINCETON,NJ,08540,0.965,range,40.351407,-74.646073
"13 CAMPBELL WOODS WAY",PRINCETON,NJ,08540,0.965,range,40.379673,-74.654588
"13 CAMPBELL WOODS WAY",PRINCETON,NJ,08540,0.965,range,40.379673,-74.654588
"14 MADISON ST",PRINCETON,NJ,08542,1.0,range,40.351913,-74.656551
"49 LONGVIEW DR",PRINCETON,NJ,08540,0.965,range,40.350713,-74.634349
"34 MAIDENHEAD RD",PRINCETON,NJ,08540,0.648,zip,40.363882,-74.64795
"162 SPRUCE ST",PRINCETON,NJ,08542,1.0,range,40.355325,-74.649682
"103 BALCORT DR",PRINCETON,NJ,08540,0.936,range,40.377819,-74.673281
"381 FRANKLIN AVE",PRINCETON,NJ,08540,0.612,street,40.06175,-74.260938
"150 SPRUCE ST 1",PRINCETON,NJ,08542,0.967,range,40.355254,-74.649861
"52 BAYARD LN",PRINCETON,NJ,08540,0.965,range,40.350999,-74.666271
"30 CASTLE HOWARD CT REAR",PRINCETON,NJ,08540,0.9,range,40.356731,-74.633826
"177 JEFFERSON RD",PRINCETON,NJ,08540,0.965,range,40.359559,-74.659476
"99 CROOKED TREE LN",PRINCETON,NJ,08540,0.965,range,40.380159,-74.634209
"23 PINE ST B",PRINCETON,NJ,08542,0.958,range,40.352863,-74.651039
"36 MOORE ST 2",PRINCETON,NJ,08542,0.963,range,40.353149,-74.655387
"31 CHESTNUT ST",PRINCETON,NJ,08542,1.0,range,40.353417,-74.652635
"11 RACE ST",PRINCETON,NJ,08542,1.0,range,40.356136,-74.667194
"4601 PROVINCELINE RD",PRINCETON,NJ,08540,0.965,range,40.345999,-74.70642
"4601 PROVINCELINE RD",PRINCETON,NJ,08540,0.965,range,40.345999,-74.70642
"50 BENJAMIN RUSH LN",PRINCETON,NJ,08540,0.965,range,40.329952,-74.685541
"240 LIBRARY PL",PRINCETON,NJ,08540,0.965,range,40.352105,-74.672025
"41 SPRING ST 2",PRINCETON,NJ,08542,0.967,range,40.351331,-74.658689
"40 LINWOOD CIR",PRINCETON,NJ,08540,0.965,range,40.362756,-74.645027
"103 BALCORT DR",PRINCETON,NJ,08540,0.936,range,40.377819,-74.673281
"3 LEAVITT LN",PRINCETON,NJ,08540,0.965,range,40.358717,-74.642748
"156 LAUREL RD",PRINCETON,NJ,08540,0.965,range,40.368965,-74.662299
"126 LEABROOK LN",PRINCETON,NJ,08540,0.965,range,40.366081,-74.645766
"126 LEABROOK LN",PRINCETON,NJ,08540,0.965,range,40.366081,-74.645766
"59 ETTL CIR",PRINCETON,NJ,08540,0.66,street,40.347757,-74.703025
"58 BIRCH AVE B",PRINCETON,NJ,08542,0.967,range,40.356885,-74.664245
"31 CHESTNUT ST",PRINCETON,NJ,08542,1.0,range,40.353417,-74.652635
"47 OLDEN LN",PRINCETON,NJ,08540,0.965,range,40.336639,-74.668923
"8 TURNER CT",PRINCETON,NJ,08540,0.965,range,40.362885,-74.663083
"2 LAUREL RD",PRINCETON,NJ,08540,0.965,range,40.364529,-74.663226
"219 VALLEY RD",PRINCETON,NJ,08540,0.965,range,40.363339,-74.656276
"30 OLD ORCHARD LN",PRINCETON,NJ,08540,0.965,range,40.386945,-74.656097
"18 EDGEHILL ST",PRINCETON,NJ,08540,0.965,range,40.344131,-74.667116
"644 CHERRY HILL RD",PRINCETON,NJ,08540,0.965,range,40.381563,-74.677557
"178 BIRCH AVE",PRINCETON,NJ,08542,1.0,range,40.356055,-74.667406
"14 TEE-ARR PL",PRINCETON,NJ,08540,0.929,range,40.359402,-74.647982
"18 TEE-ARR PL",PRINCETON,NJ,08540,0.929,range,40.359562,-74.648192
"18 EDGEHILL ST",PRINCETON,NJ,08540,0.965,range,40.344131,-74.667116
"41 ROBERT RD",PRINCETON,NJ,08540,0.965,range,40.354194,-74.639405
"175 HUN RD",PRINCETON,NJ,08540,0.965,range,40.338625,-74.68964
"429 PROSPECT AVE EXT",PRINCETON,NJ,08540,0.902,range,40.355542,-74.634209
"110 MOORE ST",PRINCETON,NJ,08540,0.965,range,40.355176,-74.656292
"53 MAPLE ST",PRINCETON,NJ,08542,1.0,range,40.354894,-74.65099
"56 ROBERT RD",PRINCETON,NJ,08540,0.965,range,40.353695,-74.639648
"412 FRANKLIN AVE",PRINCETON,NJ,08540,0.611,street,40.06175,-74.260938
"157 SHADYBROOK LN",PRINCETON,NJ,08540,0.965,range,40.370349,-74.630046
"6 FISHER AVE",PRINCETON,NJ,08540,0.965,range,40.358601,-74.646056
"18 TEE-ARR PL",PRINCETON,NJ,08540,0.929,range,40.359562,-74.648192
"4 MAIDENHEAD RD",PRINCETON,NJ,08540,0.648,zip,40.363882,-74.64795
"178 MOORE ST",PRINCETON,NJ,08540,0.965,range,40.357591,-74.657347
"4553 PROVINCELINE RD",PRINCETON,NJ,08540,0.965,range,40.331817,-74.702403
"36 HUMBERT ST",PRINCETON,NJ,08542,1.0,range,40.353491,-74.658198
"80 NASSAU ST 3A",PRINCETON,NJ,08542,0.941,range,40.349548,-74.660353
"11 RACE ST",PRINCETON,NJ,08542,1.0,range,40.356136,-74.667194
"372 S STANWORTH DR",PRINCETON,NJ,08540,0.965,range,40.353497,-74.666744
"147 JEFFERSON RD",PRINCETON,NJ,08540,0.965,range,40.358647,-74.659176
"61 CLEVELAND LN",PRINCETON,NJ,08540,0.965,range,40.351512,-74.672802
"180 JEFFERSON RD",PRINCETON,NJ,08540,0.965,range,40.359712,-74.659526
"4553 PROVINCELINE RD",PRINCETON,NJ,08540,0.965,range,40.331817,-74.702403
"13 LAWRENCE DR 104",PRINCETON,NJ,08540,0.74,range,40.359402,-74.647982
"0 BUTLER AVE 406A",PRINCETON,NJ,08540,0.56,street,40.346647,-74.63994
"28 LEIGH AVE B",PRINCETON,NJ,08542,0.967,range,40.356329,-74.663768
"720 PROSPECT AVE EXT",PRINCETON,NJ,08540,0.902,range,40.363335,-74.627479
"720 PROSPECT AVE EXT",PRINCETON,NJ,08540,0.902,range,40.363335,-74.627479
"6 LAWRENCE DR 106",PRINCETON,NJ,08540,0.74,range,40.359082,-74.647796
"31 POE RD",PRINCETON,NJ,08540,0.965,range,40.365588,-74.629149
"233 S HARRISON ST",PRINCETON,NJ,08540,0.965,range,40.347834,-74.640884
"233 S HARRISON ST",PRINCETON,NJ,08540,0.965,range,40.347834,-74.640884
"126 MEADOWBROOK DR",PRINCETON,NJ,08540,0.965,range,40.370174,-74.644026
"644 CHERRY HILL RD",PRINCETON,NJ,08540,0.965,range,40.381563,-74.677557
"296 SHADYBROOK LN",PRINCETON,NJ,08540,0.965,range,40.367459,-74.63461
"296 SHADYBROOK LN",PRINCETON,NJ,08540,0.965,range,40.367459,-74.63461
"6 JAMES CT",PRINCETON,NJ,08540,0.965,range,40.355668,-74.677014
"191 SNOWDEN LN",PRINCETON,NJ,08540,0.965,range,40.362345,-74.64356
"476 CHRISTOPHER DR",PRINCETON,NJ,08540,0.965,range,40.351502,-74.704641
"78 JEFFERSON RD",PRINCETON,NJ,08540,0.965,range,40.355895,-74.657951
"260 SNOWDEN LN",PRINCETON,NJ,08540,0.965,range,40.364771,-74.642278
"40 CALDWELL DR",PRINCETON,NJ,08540,0.965,range,40.375039,-74.630142
"105 MONTADALE DR",PRINCETON,NJ,08540,0.965,range,40.374225,-74.668961
"41 WITTMER CT",PRINCETON,NJ,08540,0.965,range,40.368537,-74.633128
"33 CLEVELAND LN",PRINCETON,NJ,08540,0.965,range,40.35178,-74.66997
"616 PRINCETON-KINGSTON RD",PRINCETON,NJ,08540,0.965,range,40.359406,-74.633823
"616 PRINCETON-KINGSTON RD",PRINCETON,NJ,08540,0.965,range,40.359406,-74.633823
"125 JOHN ST",PRINCETON,NJ,08542,1.0,range,40.352269,-74.663111
"48 CAMERON CT",PRINCETON,NJ,08540,0.965,range,40.3564,-74.646757
"211 WINANT RD",PRINCETON,NJ,08540,0.965,range,40.338428,-74.683291
"2 LAUREL RD",PRINCETON,NJ,08540,0.965,range,40.364529,-74.663226
"300 ELM RD 202",PRINCETON,NJ,08540,0.855,range,40.352522,-74.679184
"31 RANDALL RD",PRINCETON,NJ,08540,0.965,range,40.366414,-74.647088
"33 JUNIPER ROW",PRINCETON,NJ,08540,0.965,range,40.376001,-74.651523
"695 LAWRENCEVILLE RD",PRINCETON,NJ,08540,0.965,range,40.33219,-74.684854
"44 GREENBRIER ROW",PRINCETON,NJ,08540,0.943,range,40.376691,-74.650236
"27 RUNNING CEDAR RD",PRINCETON,NJ,08540,0.777,range,40.354516,-74.64162
"36 CRESTVIEW DR",PRINCETON,NJ,08540,0.965,range,40.371407,-74.669945
"46 BENJAMIN RUSH LN",PRINCETON,NJ,08540,0.965,range,40.33,-74.685609
"167 GRIGGS DR",PRINCETON,NJ,08540,0.965,range,40.386286,-74.661897
"47 WINFIELD RD",PRINCETON,NJ,08540,0.965,range,40.353908,-74.683618
"35 EDGEHILL ST",PRINCETON,NJ,08540,0.965,range,40.344492,-74.66736
"3 HAMILTON AVE",PRINCETON,NJ,08540,0.772,street,40.355208,-74.653419
"76 PRINCE WILLIAM CT",PRINCETON,NJ,08540,0.965,range,40.356512,-74.636154
"74 WOODLAND DR",PRINCETON,NJ,08540,0.965,range,40.370818,-74.664328
"20 WORTHS MILL LN",PRINCETON,NJ,08540,0.965,range,40.323733,-74.685352
"50 LINWOOD CIR",PRINCETON,NJ,08540,0.965,range,40.362732,-74.645308
"91 PHILIP DR",PRINCETON,NJ,08540,0.933,range,40.353296,-74.63177
"381 FRANKLIN AVE",PRINCETON,NJ,08540,0.612,street,40.06175,-74.260938
"575 SNOWDEN LN",PRINCETON,NJ,08540,0.965,range,40.374147,-74.638428
"65 PALMER SQUARE WEST",PRINCETON,NJ,08542,1.0,range,40.349881,-74.661772
"33 JEFFERSON RD",PRINCETON,NJ,08540,0.965,range,40.353942,-74.656922
"176 N STANWORTH DR",PRINCETON,NJ,08540,0.965,range,40.355343,-74.665886
"44 QUAKER RD",PRINCETON,NJ,08540,0.965,range,40.331982,-74.681223
"604 PRINCETON-KINGSTON RD",PRINCETON,NJ,08540,0.965,range,40.359013,-74.634407
"34 JUNIPER ROW",PRINCETON,NJ,08540,0.965,range,40.375996,-74.651523
"164 GROVER AVE",PRINCETON,NJ,08540,0.965,range,40.365,-74.648546
"59 STETSON WAY",PRINCETON,NJ,08540,0.965,range,40.319363,-74.688737
"83 RIVERSIDE DR",PRINCETON,NJ,08540,0.843,range,40.353931,-74.637275
"134 SYCAMORE RD",PRINCETON,NJ,08540,0.965,range,40.351112,-74.636663
"156 LAUREL RD",PRINCETON,NJ,08540,0.965,range,40.368965,-74.662299
"448 CHERRY HILL RD",PRINCETON,NJ,08540,0.965,range,40.375498,-74.675146
"21 BUTTERNUT ROW",PRINCETON,NJ,08540,0.965,range,40.377866,-74.651339
"10 LAMBERT DR",PRINCETON,NJ,08540,0.965,range,40.34056,-74.698666
"151 LIBRARY PL",PRINCETON,NJ,08540,0.965,range,40.349626,-74.670201
"38 TEE-ARR PL",PRINCETON,NJ,08540,0.929,range,40.360064,-74.648489
"32 W CONSTITUTION HILL",PRINCETON,NJ,08540,0.931,range,40.346091,-74.678628
"120 GROVER AVE",PRINCETON,NJ,08540,0.965,range,40.363974,-74.647596
"52 PATTON AVE",PRINCETON,NJ,08540,0.965,range,40.351429,-74.646013
"63 VALLEY RD",PRINCETON,NJ,08540,0.965,range,40.361865,-74.662055
"24 W CONSTITUTION HILL",PRINCETON,NJ,08540,0.931,range,40.346668,-74.678857
"63 VALLEY RD",PRINCETON,NJ,08540,0.965,range,40.361865,-74.662055
"44 MORGAN PL",PRINCETON,NJ,08540,0.965,range,40.356007,-74.672891
"147 WILSON RD",PRINCETON,NJ,08540,0.868,street,40.353459,-74.675125
"9 MORGAN PL",PRINCETON,NJ,08540,0.965,range,40.356442,-74.673078
"9 MORGAN PL",PRINCETON,NJ,08540,0.965,range,40.356442,-74.673078
"50 RIVER RD",PRINCETON,NJ,08540,0.882,range,40.375282,-74.621332
"775 MT LUCAS RD 326",PRINCETON,NJ,08540,0.819,range,40.386653,-74.653872
"1 MARKHAM RD 2B",PRINCETON,NJ,08540,0.912,range,40.354466,-74.643945
"417 HERRONTOWN RD",PRINCETON,NJ,08540,0.965,range,40.378057,-74.636673
"932 LAWRENCEVILLE RD",PRINCETON,NJ,08540,0.965,range,40.326404,-74.693349
"52 BAYARD LN",PRINCETON,NJ,08540,0.965,range,40.350999,-74.666271
"89 MEADOWBROOK DR",PRINCETON,NJ,08540,0.965,range,40.370294,-74.644171
"1 NEWLIN RD",PRINCETON,NJ,08540,0.965,range,40.335477,-74.663406
"513 BRICKHOUSE RD",PRINCETON,NJ,08540,0.965,range,40.329423,-74.68396
"33 ALL SAINTS RD",PRINCETON,NJ,08540,0.965,range,40.373043,-74.643598
"207 JOHN ST",PRINCETON,NJ,08542,1.0,range,40.354555,-74.664099
"55 HARRISON ST",PRINCETON,NJ,08540,0.965,range,40.352306,-74.644292
"64 CALDWELL DR",PRINCETON,NJ,08540,0.965,range,40.37584,-74.630156
"223 SNOWDEN LN",PRINCETON,NJ,08540,0.965,range,40.363567,-74.642977
"203 SPRUCE CIR",PRINCETON,NJ,08540,0.965,range,40.355835,-74.647432
"111 RIDGEVIEW CIR",PRINCETON,NJ,08540,0.965,range,40.377063,-74.688483
"231 BROOKSTONE DR",PRINCETON,NJ,08540,0.965,range,40.351557,-74.691055
"101 ADAMS DR",PRINCETON,NJ,08540,0.965,range,40.357036,-74.627717
"63 VAN DYKE RD",PRINCETON,NJ,08540,0.965,range,40.372071,-74.640515
"498 ROSEDALE RD",PRINCETON,NJ,08540,0.965,range,40.344456,-74.696917
"63 HARRISON ST",PRINCETON,NJ,08540,0.965,range,40.352018,-74.644125
"94 FAIRWAY DR",PRINCETON,NJ,08540,0.965,range,40.346306,-74.694789
"154 BAYARD LN",PRINCETON,NJ,08540,0.965,range,40.354853,-74.669119
"45 CHESTNUT ST",PRINCETON,NJ,08542,1.0,range,40.354109,-74.652825
"204 S HARRISON ST",PRINCETON,NJ,08540,0.965,range,40.348973,-74.641741
"204 S HARRISON ST",PRINCETON,NJ,08540,0.965,range,40.348973,-74.641741
"43 PALMER SQUARE WEST E",PRINCETON,NJ,08542,0.971,range,40.350185,-74.661876
"660 LAKE DR",PRINCETON,NJ,08540,0.965,range,40.351527,-74.629149
"73 LEAVITT LN",PRINCETON,NJ,08540,0.965,range,40.360485,-74.64419
"541 LAKE DR",PRINCETON,NJ,08540,0.965,range,40.347589,-74.630235
"541 LAKE DR",PRINCETON,NJ,08540,0.965,range,40.347589,-74.630235
"176 HIGHLAND TERR",PRINCETON,NJ,08540,0.965,range,40.374382,-74.690191
"176 HIGHLAND TERR",PRINCETON,NJ,08540,0.965,range,40.374382,-74.690191
"72 MASON DR",PRINCETON,NJ,08540,0.965,range,40.355284,-74.63109
"178 TERHUNE RD",PRINCETON,NJ,08540,0.965,range,40.36474,-74.658391
"34 MORGAN PL",PRINCETON,NJ,08540,0.965,range,40.356134,-74.672946
"11 E CONSTITUTION HILL",PRINCETON,NJ,08540,0.931,range,40.3468,-74.678924
"231 SNOWDEN LN",PRINCETON,NJ,08540,0.965,range,40.363829,-74.642872
"155 EWING ST",PRINCETON,NJ,08540,0.965,range,40.357723,-74.649828
"24 PINE ST",PRINCETON,NJ,08542,1.0,range,40.352874,-74.651042
"24 PINE ST",PRINCETON,NJ,08542,1.0,range,40.352874,-74.651042
"160 PROSPECT AVE",PRINCETON,NJ,08540,0.965,range,40.350292,-74.645876
"209 MOORE ST",PRINCETON,NJ,08540,0.965,range,40.358812,-74.657738
"395 WENDOVER DR",PRINCETON,NJ,08540,0.965,range,40.350974,-74.693793
"395 WENDOVER DR",PRINCETON,NJ,08540,0.965,range,40.350974,-74.693793
"1 MARKHAM RD 2B",PRINCETON,NJ,08540,0.912,range,40.354466,-74.643945
"390 GALLUP RD",PRINCETON,NJ,08540,0.965,range,40.320391,-74.686368
"84 WILSON RD",PRINCETON,NJ,08540,0.965,range,40.35435,-74.669883
"17 ARMOUR RD",PRINCETON,NJ,08540,0.965,range,40.345527,-74.670523
"48 W CONSTITUTION HILL",PRINCETON,NJ,08540,0.931,range,40.344974,-74.678985
"422 SNOWDEN LN",PRINCETON,NJ,08540,0.965,range,40.369375,-74.640211
"42 LAFAYETTE RD",PRINCETON,NJ,08540,0.965,range,40.350856,-74.673451
"136 RIVERSIDE DR",PRINCETON,NJ,08540,0.965,range,40.353147,-74.63659
"119 WESTCOTT RD",PRINCETON,NJ,08540,0.965,range,40.351932,-74.67625
"95 HERRONTOWN LN",PRINCETON,NJ,08540,0.965,range,40.385495,-74.643223
"120 JEFFERSON RD",PRINCETON,NJ,08540,0.965,range,40.357427,-74.658642
"96 DEMPSEY AVE",PRINCETON,NJ,08540,0.965,range,40.366924,-74.659969
"37 GREENBRIER ROW",PRINCETON,NJ,08540,0.943,range,40.376716,-74.650278
"381 MERCER RD",PRINCETON,NJ,08540,0.965,range,40.335529,-74.673245
"34 MORGAN PL",PRINCETON,NJ,08540,0.965,range,40.356134,-74.672946
"775 MT LUCAS RD 201",PRINCETON,NJ,08540,0.819,range,40.386653,-74.653872
"783 GREAT RD",PRINCETON,NJ,08540,0.965,range,40.364688,-74.68926
"323 BRICKHOUSE RD",PRINCETON,NJ,08540,0.965,range,40.330303,-74.68397
"944 LAWRENCEVILLE RD",PRINCETON,NJ,08540,0.965,range,40.326155,-74.693583
"9 LESLIE CT",PRINCETON,NJ,08540,0.965,range,40.339813,-74.677953
"9 LESLIE CT",PRINCETON,NJ,08540,0.965,range,40.339813,-74.677953
"70 DODDS LN",PRINCETON,NJ,08540,0.965,range,40.369389,-74.635852
"2 PURITAN CT",PRINCETON,NJ,08540,0.965,range,40.354915,-74.692818
"68 MOUNTAIN AVE",PRINCETON,NJ,08540,0.965,range,40.356689,-74.672433
"136 JEFFERSON RD",PRINCETON,NJ,08540,0.965,range,40.358241,-74.65894
"106 SNOWDEN LN",PRINCETON,NJ,08540,0.843,range,40.359637,-74.64178
"21 BANK ST",PRINCETON,NJ,08542,1.0,range,40.349045,-74.66318
"11 WORTHS MILL LN",PRINCETON,NJ,08540,0.965,range,40.323688,-74.685416
"90 DEMPSEY AVE",PRINCETON,NJ,08540,0.965,range,40.366791,-74.659927
"246 JEFFERSON RD",PRINCETON,NJ,08540,0.965,range,40.362005,-74.659852
"300 ELM RD 104",PRINCETON,NJ,08540,0.855,range,40.352522,-74.679184
"953 GREAT RD",PRINCETON,NJ,08540,0.965,range,40.369278,-74.69502
"32 BERTRAND DR",PRINCETON,NJ,08540,0.965,range,40.37283,-74.633887
"140 SNOWDEN LN",PRINCETON,NJ,08540,0.868,street,40.360763,-74.642921
"174 SPRINGDALE RD",PRINCETON,NJ,08540,0.965,range,40.336183,-74.664063
"314 BRICKHOUSE RD",PRINCETON,NJ,08540,0.965,range,40.330216,-74.683947
"145 MANSGROVE RD",PRINCETON,NJ,08540,0.965,range,40.36864,-74.663094
"126 VALLEY RD",PRINCETON,NJ,08540,0.965,range,40.362589,-74.659358
"58 VALLEY RD",PRINCETON,NJ,08540,0.965,range,40.361796,-74.662553
"37 BANK ST 1ST FL",PRINCETON,NJ,08542,0.902,range,40.349273,-74.663322
"575 SNOWDEN LN",PRINCETON,NJ,08540,0.965,range,40.374147,-74.638428
"30 BANK ST 1",PRINCETON,NJ,08542,0.958,range,40.349168,-74.663268
"25 CUYLER RD",PRINCETON,NJ,08540,0.965,range,40.366071,-74.660743
"25 CUYLER RD",PRINCETON,NJ,08540,0.965,range,40.366071,-74.660743
"253 HERRONTOWN RD",PRINCETON,NJ,08540,0.965,range,40.377227,-74.633405
"253 HERRONTOWN RD",PRINCETON,NJ,08540,0.965,range,40.377227,-74.633405
"31 GOVERNORS LN",PRINCETON,NJ,08540,0.965,range,40.369612,-74.649051
"40 SPRINGDALE RD",PRINCETON,NJ,08540,0.868,street,40.341042,-74.668071
"350 RIVERSIDE DR",PRINCETON,NJ,08540,0.965,range,40.354483,-74.629618
"350 RIVERSIDE DR",PRINCETON,NJ,08540,0.965,range,40.354483,-74.629618
"276 NASSAU ST 3",PRINCETON,NJ,08540,0.933,range,40.352817,-74.649312
"72 BALCORT DR",PRINCETON,NJ,08540,0.936,range,40.377662,-74.674426
"145 SPRUCE ST",PRINCETON,NJ,08542,1.0,range,40.355228,-74.649927
"113 MAGNOLIA LN",PRINCETON,NJ,08540,0.965,range,40.365839,-74.637944
"210 LINDEN LN",PRINCETON,NJ,08540,0.965,range,40.360943,-74.6529
"208 LAUREL CIR",PRINCETON,NJ,08540,0.965,range,40.37108,-74.661482
"70 ALEXANDER ST",PRINCETON,NJ,08540,0.868,street,40.344331,-74.661889
"71 MORAN AVE",PRINCETON,NJ,08540,0.803,range,40.370341,-74.626509
"92 BROOKSTONE DR",PRINCETON,NJ,08540,0.965,range,40.346934,-74.691116
"93 BATTLE RD",PRINCETON,NJ,08540,0.965,range,40.335624,-74.670453
"137 VALLEY RD",PRINCETON,NJ,08540,0.965,range,40.362712,-74.658985
"246 JEFFERSON RD",PRINCETON,NJ,08540,0.965,range,40.362005,-74.659852
"137 VALLEY RD",PRINCETON,NJ,08540,0.965,range,40.362712,-74.658985
"257 MOORE ST",PRINCETON,NJ,08540,0.965,range,40.361056,-74.659078
"64 MACLEAN CIR",PRINCETON,NJ,08540,0.965,range,40.3469,-74.634705
"137 HICKORY CT",PRINCETON,NJ,08540,0.965,range,40.361995,-74.65718
"101 ADAMS DR",PRINCETON,NJ,08540,0.965,range,40.357036,-74.627717
"64 MACLEAN CIR",PRINCETON,NJ,08540,0.965,range,40.3469,-74.634705
"24 CAMERON CT",PRINCETON,NJ,08540,0.965,range,40.356043,-74.646407
"246 HAWTHORNE AVE",PRINCETON,NJ,08540,0.965,range,40.357072,-74.649768
"106 LEABROOK LN",PRINCETON,NJ,08540,0.965,range,40.365417,-74.645818
"140 HUN RD",PRINCETON,NJ,08540,0.965,range,40.339201,-74.690693
"29 CLEVELAND LN",PRINCETON,NJ,08540,0.965,range,40.351816,-74.669775
"774 PRINCETON-KINGSTON RD",PRINCETON,NJ,08540,0.965,range,40.364021,-74.628651
"519 EWING ST",PRINCETON,NJ,08540,0.965,range,40.367113,-74.65678
"300 ELM RD 209",PRINCETON,NJ,08540,0.855,range,40.352522,-74.679184
"18 HUMBERT ST",PRINCETON,NJ,08542,1.0,range,40.353258,-74.658014
"18 HUMBERT ST",PRINCETON,NJ,08542,1.0,range,40.353258,-74.658014
"619 LAWRENCEVILLE RD",PRINCETON,NJ,08540,0.965,range,40.333063,-74.682124
"248 CARRIAGE WAY",PRINCETON,NJ,08540,0.965,range,40.326678,-74.689448
"107 WORTHS MILL LN",PRINCETON,NJ,08540,0.965,range,40.323182,-74.686487
"55 GOVERNORS LN",PRINCETON,NJ,08540,0.965,range,40.369783,-74.650292
"92 BROOKSTONE DR S-2",PRINCETON,NJ,08540,0.923,range,40.346934,-74.691116
"122 PATTON AVE",PRINCETON,NJ,08540,0.965,range,40.352331,-74.643048
"197 MOORE ST",PRINCETON,NJ,08540,0.965,range,40.358404,-74.657607
"200 MT LUCAS RD",PRINCETON,NJ,08540,0.892,range,40.368327,-74.661244
"107 SNOWDEN LN",PRINCETON,NJ,08540,0.965,range,40.359671,-74.641801
"9 ADAMS DR",PRINCETON,NJ,08540,0.965,range,40.356189,-74.62923
"107 SNOWDEN LN",PRINCETON,NJ,08540,0.965,range,40.359671,-74.641801
"34 CARNAHAN PL",PRINCETON,NJ,08540,0.965,range,40.359193,-74.662167
"137 HICKORY CT",PRINCETON,NJ,08540,0.965,range,40.361995,-74.65718
"87 BATTLE RD",PRINCETON,NJ,08540,0.965,range,40.33592,-74.670175
"126 VALLEY RD",PRINCETON,NJ,08540,0.965,range,40.362589,-74.659358
"46 HERRONTOWN CIR",PRINCETON,NJ,08540,0.965,range,40.376693,-74.634356
"622 PRINCETON-KINGSTON RD",PRINCETON,NJ,08540,0.965,range,40.359605,-74.63361
"87 BATTLE RD",PRINCETON,NJ,08540,0.965,range,40.33592,-74.670175
"150 CLEVELAND LN",PRINCETON,NJ,08540,0.965,range,40.376507,-74.596814
"10 PRESERVATION PL A",PRINCETON,NJ,08540,0.473,street,40.116147,-74.79153
"12 PARK PL",PRINCETON,NJ,08542,1.0,range,40.35152,-74.65728
"18 ROLLINGMEAD",PRINCETON,NJ,08540,0.92,range,40.358875,-74.640756
"150 CLEVELAND LN",PRINCETON,NJ,08540,0.965,range,40.376507,-74.596814
"176 CEDAR LN",PRINCETON,NJ,08540,0.965,range,40.350251,-74.638947
"314 RIDGEVIEW RD",PRINCETON,NJ,08540,0.965,range,40.377828,-74.686603
"56 E MARION RD",PRINCETON,NJ,08540,0.9,range,40.370717,-74.627727
"39 RED HILL RD",PRINCETON,NJ,08540,0.965,range,40.363859,-74.665165
"160 HODGE RD",PRINCETON,NJ,08540,0.965,range,40.348389,-74.672929
"52 KNOLL DR",PRINCETON,NJ,08540,0.965,range,40.349912,-74.631459
"40 PRINCETON AVE",PRINCETON,NJ,08540,0.965,range,40.351798,-74.647203
"31 WILKINSON WAY",PRINCETON,NJ,08540,0.965,range,40.326305,-74.685497
"42 LAFAYETTE RD",PRINCETON,NJ,08540,0.965,range,40.350856,-74.673451
"98 JEFFERSON RD",PRINCETON,NJ,08540,0.965,range,40.356503,-74.658153
"440 FRANKLIN AVE",PRINCETON,NJ,08540,0.611,street,40.06175,-74.260938
"95 MONTADALE DR",PRINCETON,NJ,08540,0.965,range,40.373865,-74.668774
"24 SOUTHERN WAY",PRINCETON,NJ,08540,0.965,range,40.349535,-74.641247
"155 PATTON AVE",PRINCETON,NJ,08540,0.965,range,40.352803,-74.64131
"95 MONTADALE DR",PRINCETON,NJ,08540,0.965,range,40.373865,-74.668774
"355 RIDGEVIEW RD",PRINCETON,NJ,08540,0.965,range,40.376818,-74.692286
"90 AUDUBON LN",PRINCETON,NJ,08540,0.965,range,40.345999,-74.70642
"495 EWING ST",PRINCETON,NJ,08540,0.965,range,40.366912,-74.65653
"60 MCCOSH CIR",PRINCETON,NJ,08540,0.965,range,40.344854,-74.637413
"105 LEIGH AVE",PRINCETON,NJ,08542,1.0,range,40.355403,-74.667155
"27 NORTH RD",PRINCETON,NJ,08540,0.798,range,40.356438,-74.683772
"212 CHERRY VALLEY RD",PRINCETON,NJ,08540,0.843,range,40.384188,-74.674796
"72 WINANT RD",PRINCETON,NJ,08540,0.965,range,40.336933,-74.678373
"72 WINANT RD",PRINCETON,NJ,08540,0.965,range,40.336933,-74.678373
"75 LITTLEBROOK RD",PRINCETON,NJ,08540,0.965,range,40.362723,-74.635895
"60 LITTLEBROOK RD",PRINCETON,NJ,08540,0.965,range,40.362462,-74.636223
"298 SNOWDEN LN",PRINCETON,NJ,08540,0.965,range,40.365848,-74.641765
"298 SNOWDEN LN",PRINCETON,NJ,08540,0.965,range,40.365848,-74.641765
"38 W CONSTITUTION HILL",PRINCETON,NJ,08540,0.931,range,40.345649,-74.678621
"38 W CONSTITUTION HILL",PRINCETON,NJ,08540,0.931,range,40.345649,-74.678621
"601 LAKE DR",PRINCETON,NJ,08540,0.965,range,40.350502,-74.629485
"601 LAKE DR",PRINCETON,NJ,08540,0.965,range,40.350502,-74.629485
"152 HICKORY CT",PRINCETON,NJ,08540,0.965,range,40.361967,-74.657267
"107 MOORE ST",PRINCETON,NJ,08540,0.965,range,40.354996,-74.65614
"4535 PROVINCELINE RD",PRINCETON,NJ,08540,0.965,range,40.330304,-74.70238
"21 CAMPBELL WOODS WAY",PRINCETON,NJ,08540,0.965,range,40.379613,-74.654032
"140 LITTLEBROOK RD",PRINCETON,NJ,08540,0.965,range,40.365179,-74.634198
"74 ROBERT RD",PRINCETON,NJ,08540,0.965,range,40.353188,-74.639359
"74 ROBERT RD",PRINCETON,NJ,08540,0.965,range,40.353188,-74.639359
"779 PRINCETON-KINGSTON RD",PRINCETON,NJ,08540,0.965,range,40.364027,-74.628648
"7 ARMOUR RD",PRINCETON,NJ,08540,0.965,range,40.345728,-74.670321
"94 FAIRWAY DR",PRINCETON,NJ,08540,0.965,range,40.346306,-74.694789
"96 HUN RD",PRINCETON,NJ,08540,0.965,range,40.339828,-74.691708
"96 HUN RD",PRINCETON,NJ,08540,0.965,range,40.339828,-74.691708
"33 SPRINGDALE RD",PRINCETON,NJ,08540,0.868,street,40.341101,-74.668109
"142 CEDAR LN",PRINCETON,NJ,08540,0.965,range,40.351003,-74.639433
"86 STOCKTON ST",PRINCETON,NJ,08540,0.965,range,40.345656,-74.668827
"119 LINDEN LN",PRINCETON,NJ,08540,0.965,range,40.358322,-74.651144
"41 LITTLEBROOK RD",PRINCETON,NJ,08540,0.965,range,40.362131,-74.636455
"54 HARRISON ST",PRINCETON,NJ,08540,0.965,range,40.35227,-74.644271
"52 MAPLE ST",PRINCETON,NJ,08542,1.0,range,40.35472,-74.650759
"87 COLLEGE RD WEST",PRINCETON,NJ,08540,0.965,range,40.341797,-74.666107
"265 HERRONTOWN RD",PRINCETON,NJ,08540,0.965,range,40.37724,-74.633538
"16 BOUDINOT ST",PRINCETON,NJ,08540,0.965,range,40.349134,-74.666924
"160 PROSPECT AVE",PRINCETON,NJ,08540,0.965,range,40.350292,-74.645876
"68 LOVERS LN 4",PRINCETON,NJ,08540,0.933,range,40.340977,-74.672022
"30 HAMILTON AVE",PRINCETON,NJ,08540,0.773,street,40.355208,-74.653419
"300 ELM RD 238",PRINCETON,NJ,08540,0.855,range,40.352522,-74.679184
"7 RED HILL RD",PRINCETON,NJ,08540,0.965,range,40.362986,-74.665412
"412 REDDING CIR",PRINCETON,NJ,08540,0.965,range,40.372876,-74.660241
"40 MONTADALE CIR",PRINCETON,NJ,08540,0.965,range,40.374243,-74.667272
"38 FAIRWAY DR",PRINCETON,NJ,08540,0.965,range,40.345481,-74.694574
"38 FAIRWAY DR",PRINCETON,NJ,08540,0.965,range,40.345481,-74.694574
"370 EWING ST",PRINCETON,NJ,08540,0.965,range,40.362893,-74.653722
"46 GREENWAY TERR",PRINCETON,NJ,08540,0.965,range,40.35033,-74.694186
"9 ADAMS DR",PRINCETON,NJ,08540,0.965,range,40.356189,-74.62923
"15 VANDEVENTER AVE",PRINCETON,NJ,08542,1.0,range,40.351589,-74.657763
"117 LIBRARY PL",PRINCETON,NJ,08540,0.965,range,40.348499,-74.669412
"151 PATTON AVE",PRINCETON,NJ,08540,0.965,range,40.35278,-74.641366
"151 PATTON AVE",PRINCETON,NJ,08540,0.965,range,40.35278,-74.641366
"174 GUYOT AVE",PRINCETON,NJ,08540,0.965,range,40.361073,-74.657185
"56 E MARION RD",PRINCETON,NJ,08540,0.9,range,40.370717,-74.627727
"68 LOVERS LN 4",PRINCETON,NJ,08540,0.933,range,40.340977,-74.672022
"56 BALCORT DR",PRINCETON,NJ,08540,0.936,range,40.377589,-74.674957
"18 LEICESTER CT",PRINCETON,NJ,08540,0.965,range,40.329305,-74.688411
"327 WITHERSPOON ST",PRINCETON,NJ,08542,1.0,range,40.359368,-74.663934
"300 ELM RD 103",PRINCETON,NJ,08540,0.855,range,40.352522,-74.679184
"41 CEDAR LN",PRINCETON,NJ,08540,0.965,range,40.354081,-74.641372
"100 SYCAMORE RD",PRINCETON,NJ,08540,0.965,range,40.34977,-74.638558
"278 HAMILTON AVE",PRINCETON,NJ,08540,0.965,range,40.358142,-74.644802
"964 PRINCETON-KINGSTON RD",PRINCETON,NJ,08540,0.965,range,40.36852,-74.625445
"14 JOURNEYS END LN",PRINCETON,NJ,08540,0.965,range,40.369953,-74.647268
"147 BIRCH AVE",PRINCETON,NJ,08542,1.0,range,40.3562,-74.666546
"170 GALLUP RD",PRINCETON,NJ,08540,0.965,range,40.322676,-74.691883
"100 SYCAMORE RD",PRINCETON,NJ,08540,0.965,range,40.34977,-74.638558
"381 CHRISTOPHER DR",PRINCETON,NJ,08540,0.965,range,40.35183,-74.704043
"131 PATTON AVE",PRINCETON,NJ,08540,0.965,range,40.352553,-74.642152
"451 CHERRY HILL RD",PRINCETON,NJ,08540,0.965,range,40.375377,-74.675084
"170 POE RD",PRINCETON,NJ,08540,0.965,range,40.369625,-74.631199
"14 MCCOMB RD",PRINCETON,NJ,08540,0.965,range,40.378221,-74.653996
"40 MONTADALE CIR",PRINCETON,NJ,08540,0.965,range,40.374243,-74.667272
"138 VALLEY RD",PRINCETON,NJ,08540,0.965,range,40.362692,-74.659044
"14 MCCOMB RD",PRINCETON,NJ,08540,0.965,range,40.378221,-74.653996
"42 MURRAY PL",PRINCETON,NJ,08540,0.965,range,40.351289,-74.648811
"49 MAYBURY HILL RD",PRINCETON,NJ,08540,0.965,range,40.366953,-74.642252
"74 DOGWOOD HL",PRINCETON,NJ,08540,0.912,range,40.384133,-74.656385
"15 BILLIE ELLIS LN 15",PRINCETON,NJ,08540,0.926,range,40.388424,-74.659815
"19 MADISON ST",PRINCETON,NJ,08542,1.0,range,40.352003,-74.656587
"446 NASSAU ST",PRINCETON,NJ,08540,0.965,range,40.356339,-74.640182
"112 LEIGH AVE",PRINCETON,NJ,08542,1.0,range,40.355416,-74.66712
"201 HUN RD",PRINCETON,NJ,08540,0.965,range,40.337966,-74.689491
"229 TERHUNE RD",PRINCETON,NJ,08540,0.965,range,40.365058,-74.657109
"105 LINDEN LN",PRINCETON,NJ,08540,0.965,range,40.357128,-74.650752
"206 CHRISTOPHER DR",PRINCETON,NJ,08540,0.965,range,40.347973,-74.699486
"70 BRAEBURN DR",PRINCETON,NJ,08540,0.965,range,40.366754,-74.644056
"295 WITHERSPOON ST",PRINCETON,NJ,08542,1.0,range,40.35756,-74.663134
"212 BULLOCK DR",PRINCETON,NJ,08540,0.965,range,40.326099,-74.684226
"17 HULFISH ST E",PRINCETON,NJ,08542,0.971,range,40.350403,-74.66342
"66 WITTMER CT",PRINCETON,NJ,08540,0.965,range,40.368125,-74.632584
"543 RIVERSIDE DR",PRINCETON,NJ,08540,0.965,range,40.359799,-74.631728
"486 ROSEDALE RD",PRINCETON,NJ,08540,0.965,range,40.344545,-74.696503
"24 LITTLEBROOK RD",PRINCETON,NJ,08540,0.965,range,40.361838,-74.636761
"24 LITTLEBROOK RD",PRINCETON,NJ,08540,0.965,range,40.361838,-74.636761
"486 ROSEDALE RD",PRINCETON,NJ,08540,0.965,range,40.344545,-74.696503
"25 RACE ST",PRINCETON,NJ,08542,1.0,range,40.356209,-74.667222
"124 HUNT DR",PRINCETON,NJ,08540,0.965,range,40.352486,-74.685081
"599 PRETTY BROOK RD",PRINCETON,NJ,08540,0.965,range,40.356435,-74.712136
"206 CHRISTOPHER DR",PRINCETON,NJ,08540,0.965,range,40.347973,-74.699486
"1 NORTH RD",PRINCETON,NJ,08540,0.798,range,40.356714,-74.682602
"234 BIRCH AVE",PRINCETON,NJ,08542,1.0,range,40.355771,-74.668149
"1 NORTH RD",PRINCETON,NJ,08540,0.798,range,40.356714,-74.682602
"46 HERRONTOWN CIR",PRINCETON,NJ,08540,0.965,range,40.376693,-74.634356
"131 HAMILTON AVE",PRINCETON,NJ,08540,0.965,range,40.355784,-74.651464
"299 WALNUT LN",PRINCETON,NJ,08540,0.965,range,40.363167,-74.656809
"118 WILLIAM PATERSON CT",PRINCETON,NJ,08540,0.949,range,40.38659,-74.660095
"694 EWING ST",PRINCETON,NJ,08540,0.965,range,40.372069,-74.66215
"301 RIDGEVIEW RD",PRINCETON,NJ,08540,0.965,range,40.37729,-74.689838
"24 CHESTNUT ST",PRINCETON,NJ,08542,1.0,range,40.353022,-74.652527
"34 KNOLL DR",PRINCETON,NJ,08540,0.965,range,40.349898,-74.632298
"107 HAMILTON AVE",PRINCETON,NJ,08540,0.965,range,40.355246,-74.653042
"51 W CONSTITUTION HILL",PRINCETON,NJ,08540,0.931,range,40.344533,-74.678987
"424 PROSPECT AVE EXT",PRINCETON,NJ,08540,0.902,range,40.354963,-74.635126
"424 PROSPECT AVE EXT",PRINCETON,NJ,08540,0.902,range,40.354963,-74.635126
"8 E CONSTITUTION HILL",PRINCETON,NJ,08540,0.809,range,40.346957,-74.679005
"8 E CONSTITUTION HILL",PRINCETON,NJ,08540,0.809,range,40.346957,-74.679005
"288 WESTERN WAY",PRINCETON,NJ,08540,0.965,range,40.350359,-74.642055
"288 WESTERN WAY",PRINCETON,NJ,08540,0.965,range,40.350359,-74.642055
"133 LONGVIEW DR",PRINCETON,NJ,08540,0.965,range,40.348753,-74.632943
"292 HARTLEY AVE",PRINCETON,NJ,08540,0.965,range,40.346341,-74.632658
"536 LAKE DR",PRINCETON,NJ,08540,0.965,range,40.347716,-74.630216
"583 EWING ST",PRINCETON,NJ,08540,0.965,range,40.368938,-74.658096
"15 W MARION RD",PRINCETON,NJ,08540,0.9,range,40.36988,-74.628219
"15 W MARION RD",PRINCETON,NJ,08540,0.9,range,40.36988,-74.628219
"491 EWING ST",PRINCETON,NJ,08540,0.965,range,40.366799,-74.656468
"26 WESTCOTT RD",PRINCETON,NJ,08540,0.965,range,40.353483,-74.668882
"47 HEMLOCK CIR",PRINCETON,NJ,08540,0.965,range,40.352753,-74.632873
"18 HIBBEN RD",PRINCETON,NJ,08540,0.965,range,40.343268,-74.667931
"18 HIBBEN RD",PRINCETON,NJ,08540,0.965,range,40.343268,-74.667931
"339 MT LUCAS RD",PRINCETON,NJ,08540,0.892,range,40.371837,-74.65959
"70 WIGGINS ST",PRINCETON,NJ,08540,0.965,range,40.35358,-74.656455
"15 ERDMAN AVE",PRINCETON,NJ,08540,0.965,range,40.359115,-74.647385
"74 MAPLE ST",PRINCETON,NJ,08542,1.0,range,40.355151,-74.651056
"136 BAYARD LN",PRINCETON,NJ,08540,0.965,range,40.354476,-74.668829
"37 BROADRIPPLE DR",PRINCETON,NJ,08540,0.965,range,40.365629,-74.636754
"144 SYCAMORE RD",PRINCETON,NJ,08540,0.965,range,40.351216,-74.636457
"144 SYCAMORE RD",PRINCETON,NJ,08540,0.965,range,40.351216,-74.636457
"404 FRANKLIN AVE",PRINCETON,NJ,08540,0.612,street,40.06175,-74.260938
"86 STOCKTON ST",PRINCETON,NJ,08540,0.965,range,40.345656,-74.668827
"136 BAYARD LN",PRINCETON,NJ,08540,0.965,range,40.354476,-74.668829
"6 HOLLY HSE F",PRINCETON,NJ,08540,0.544,street,40.322559,-74.683742
"92 LINDEN LN",PRINCETON,NJ,08540,0.965,range,40.356787,-74.65064
"219 VALLEY RD",PRINCETON,NJ,08540,0.965,range,40.363339,-74.656276
"15 MORGAN PL",PRINCETON,NJ,08540,0.965,range,40.356367,-74.673046
"11 GREENLAND CT",PRINCETON,NJ,08540,0.965,range,40.340083,-74.67882
"201 LAMBERT DR",PRINCETON,NJ,08540,0.965,range,40.340533,-74.696755
"45 HILLSIDE RD",PRINCETON,NJ,08540,0.965,range,40.364348,-74.655724
"55 GOVERNORS LN",PRINCETON,NJ,08540,0.965,range,40.369783,-74.650292
"61 HARRIS RD",PRINCETON,NJ,08540,0.965,range,40.35884,-74.660681
"6 HOLLY HSE D",PRINCETON,NJ,08540,0.576,street,40.322559,-74.683742
"29 GORDON WAY",PRINCETON,NJ,08540,0.965,range,40.356092,-74.645404
"66 LEIGH AVE",PRINCETON,NJ,08542,1.0,range,40.355861,-74.66548
"89 BIRCH AVE",PRINCETON,NJ,08542,1.0,range,40.35666,-74.665337
"55 WITHERSPOON ST 405",PRINCETON,NJ,08542,0.945,range,40.351467,-74.660493
"220 SNOWDEN LN",PRINCETON,NJ,08540,0.965,range,40.363502,-74.643004
"184 LOOMIS CT",PRINCETON,NJ,08540,0.965,range,40.363649,-74.658308
"580 EWING ST",PRINCETON,NJ,08540,0.965,range,40.368303,-74.657656
"34 GREENHOUSE DR",PRINCETON,NJ,08540,0.965,range,40.336919,-74.673592
"52 GULICK RD",PRINCETON,NJ,08540,0.965,range,40.367113,-74.62879
"55 WITHERSPOON ST 405",PRINCETON,NJ,08542,0.945,range,40.351467,-74.660493
"1063 STUART RD",PRINCETON,NJ,08540,0.965,range,40.369716,-74.68012
"231 RIVERSIDE DR",PRINCETON,NJ,08540,0.965,range,40.351497,-74.633245
"90 DEMPSEY AVE",PRINCETON,NJ,08540,0.965,range,40.366791,-74.659927
"150 LONGVIEW DR",PRINCETON,NJ,08540,0.965,range,40.347474,-74.631864
"11 TERHUNE RD",PRINCETON,NJ,08540,0.965,range,40.362235,-74.663841
"74 CHRISTOPHER DR",PRINCETON,NJ,08540,0.965,range,40.346163,-74.698529
"15 MASON DR",PRINCETON,NJ,08540,0.965,range,40.355975,-74.632365
"68 REDDING CIR",PRINCETON,NJ,08540,0.965,range,40.372474,-74.659442
"7 CALDWELL DR",PRINCETON,NJ,08540,0.965,range,40.373974,-74.63001
"4563 PROVINCELINE RD",PRINCETON,NJ,08540,0.965,range,40.332646,-74.702352
"18 SPRINGDALE RD",PRINCETON,NJ,08540,0.965,range,40.341389,-74.668292
"18 SPRINGDALE RD",PRINCETON,NJ,08540,0.965,range,40.341389,-74.668292
"42 MONROE LN",PRINCETON,NJ,08540,0.965,range,40.366822,-74.648538
"150 ARRETON RD",PRINCETON,NJ,08540,0.965,range,40.382828,-74.668986
"51 W CONSTITUTION HILL",PRINCETON,NJ,08540,0.931,range,40.344533,-74.678987
"52 MONROE LN",PRINCETON,NJ,08540,0.965,range,40.367041,-74.648316
"201 GROVER AVE",PRINCETON,NJ,08540,0.965,range,40.367208,-74.650416
"308 EWING ST",PRINCETON,NJ,08540,0.965,range,40.361148,-74.652324
"48 PARKSIDE DR",PRINCETON,NJ,08540,0.965,range,40.332334,-74.678091
"338 GALLUP RD",PRINCETON,NJ,08540,0.965,range,40.321252,-74.687855
"543 RIVERSIDE DR",PRINCETON,NJ,08540,0.965,range,40.359799,-74.631728
"36 BIRCH AVE",PRINCETON,NJ,08542,1.0,range,40.357063,-74.66378
"52 HENRY AVE",PRINCETON,NJ,08540,0.965,range,40.358343,-74.660424
"38 BOUVANT DR",PRINCETON,NJ,08540,0.965,range,40.374628,-74.678615
"35 TUPELO ROW",PRINCETON,NJ,08540,0.965,range,40.377535,-74.650537
"150 ARRETON RD",PRINCETON,NJ,08540,0.965,range,40.382828,-74.668986
"99 HEATHER LN",PRINCETON,NJ,08540,0.965,range,40.378109,-74.70226
"20 WILKINSON WAY",PRINCETON,NJ,08540,0.965,range,40.325737,-74.685013
"52 HENRY AVE",PRINCETON,NJ,08540,0.965,range,40.358343,-74.660424
"120 JEFFERSON RD",PRINCETON,NJ,08540,0.965,range,40.357427,-74.658642
"47 GOVERNORS LN",PRINCETON,NJ,08540,0.965,range,40.369534,-74.649935
"61 HARRIET DR",PRINCETON,NJ,08540,0.965,range,40.357806,-74.642781
"21 BENJAMIN RUSH LN",PRINCETON,NJ,08540,0.965,range,40.330203,-74.686635
"307 SHADYBROOK LN",PRINCETON,NJ,08540,0.965,range,40.367424,-74.634632
"15 ERDMAN AVE",PRINCETON,NJ,08540,0.965,range,40.359115,-74.647385
"99 MEADOWBROOK DR",PRINCETON,NJ,08540,0.965,range,40.370373,-74.644471
"166 JEFFERSON RD",PRINCETON,NJ,08540,0.965,range,40.359274,-74.659382
"122 LINDEN LN",PRINCETON,NJ,08540,0.965,range,40.357981,-74.651032
"166 JEFFERSON RD",PRINCETON,NJ,08540,0.965,range,40.359274,-74.659382
"16 WITHERSPOON ST",PRINCETON,NJ,08542,1.0,range,40.350208,-74.659912
"122 LINDEN LN",PRINCETON,NJ,08540,0.965,range,40.357981,-74.651032
"53 WHEATSHEAF LN",PRINCETON,NJ,08540,0.965,range,40.358243,-74.639115
"53 WHEATSHEAF LN",PRINCETON,NJ,08540,0.965,range,40.358243,-74.639115
"34 ERDMAN AVE",PRINCETON,NJ,08540,0.965,range,40.359848,-74.645942
"33 LAFAYETTE RD",PRINCETON,NJ,08540,0.965,range,40.350521,-74.672533
"670 PRINCETON-KINGSTON RD",PRINCETON,NJ,08540,0.965,range,40.361167,-74.631473
"140 LITTLEBROOK RD",PRINCETON,NJ,08540,0.965,range,40.365179,-74.634198
"4587 PROVINCELINE RD",PRINCETON,NJ,08540,0.868,street,40.334548,-74.701078
"4587 PROVINCELINE RD",PRINCETON,NJ,08540,0.868,street,40.334548,-74.701078
"162 SPRINGDALE RD",PRINCETON,NJ,08540,0.965,range,40.336977,-74.664927
"200 LAUREL CIR",PRINCETON,NJ,08540,0.965,range,40.371018,-74.661501
"30 GREEN ST",PRINCETON,NJ,08542,1.0,range,40.352436,-74.66146
"57 ELM RD",PRINCETON,NJ,08540,0.965,range,40.344054,-74.672975
"10 GREENBRIER ROW",PRINCETON,NJ,08540,0.943,range,40.376821,-74.650448
"24 DEER PATH",PRINCETON,NJ,08540,0.965,range,40.360839,-74.639036
"43 SOUTHERN WAY",PRINCETON,NJ,08540,0.965,range,40.349805,-74.640807
"2 BENJAMIN RUSH LN",PRINCETON,NJ,08540,0.965,range,40.329719,-74.68773
"75 HARRIS RD",PRINCETON,NJ,08540,0.965,range,40.359245,-74.660826
"63 LEAVITT LN",PRINCETON,NJ,08540,0.965,range,40.360481,-74.644187
"221 S HARRISON ST",PRINCETON,NJ,08540,0.965,range,40.348098,-74.641036
"32 FITCH WAY",PRINCETON,NJ,08540,0.965,range,40.378035,-74.681161
"27 WALKER DR",PRINCETON,NJ,08540,0.965,range,40.345317,-74.699484
"147 WILSON RD",PRINCETON,NJ,08540,0.868,street,40.353459,-74.675125
"44 BENJAMIN RUSH LN",PRINCETON,NJ,08540,0.965,range,40.330022,-74.685663
"203 DRAKES CORNER RD",PRINCETON,NJ,08540,0.843,range,40.371093,-74.704384
"73 BROADRIPPLE DR",PRINCETON,NJ,08540,0.965,range,40.366366,-74.636068
"73 BROADRIPPLE DR",PRINCETON,NJ,08540,0.965,range,40.366366,-74.636068
"390 GALLUP RD",PRINCETON,NJ,08540,0.965,range,40.320391,-74.686368
"39 PINE ST",PRINCETON,NJ,08542,1.0,range,40.353248,-74.651141
"202 310 ELM RD",PRINCETON,NJ,08540,0.855,range,40.349613,-74.677188
"7 ANDREWS LN",PRINCETON,NJ,08540,0.965,range,40.365426,-74.666651
"44 BENJAMIN RUSH LN",PRINCETON,NJ,08540,0.965,range,40.330022,-74.685663
"73 BROOKSTONE DR",PRINCETON,NJ,08540,0.965,range,40.346856,-74.691821
"30 SOUTHERN WAY",PRINCETON,NJ,08540,0.965,range,40.349619,-74.641109
"30 SOUTHERN WAY",PRINCETON,NJ,08540,0.965,range,40.349619,-74.641109
"7 LEIGH AVE",PRINCETON,NJ,08542,1.0,range,40.356614,-74.663025
"7 LEIGH AVE",PRINCETON,NJ,08542,1.0,range,40.356614,-74.663025
"34 BOUVANT DR",PRINCETON,NJ,08540,0.965,range,40.374722,-74.678253
"166 CHERRY HILL RD",PRINCETON,NJ,08540,0.965,range,40.362788,-74.665161
"732 PRINCETON-KINGSTON RD",PRINCETON,NJ,08540,0.965,range,40.362851,-74.629794
"254 CHRISTOPHER DR",PRINCETON,NJ,08540,0.965,range,40.349451,-74.701076
"2 PARDOE RD",PRINCETON,NJ,08540,0.965,range,40.354124,-74.673181
"19 LINDEN LN",PRINCETON,NJ,08540,0.965,range,40.35375,-74.649551
"19 LINDEN LN",PRINCETON,NJ,08540,0.965,range,40.35375,-74.649551
"11 OLD ORCHARD LN",PRINCETON,NJ,08540,0.965,range,40.386854,-74.655936
"9 ANDREWS LN",PRINCETON,NJ,08540,0.965,range,40.365885,-74.66664
"9 ANDREWS LN",PRINCETON,NJ,08540,0.965,range,40.365885,-74.66664
"151 LIBRARY PL",PRINCETON,NJ,08540,0.965,range,40.349626,-74.670201
"100 GULICK RD",PRINCETON,NJ,08540,0.965,range,40.368017,-74.629075
"15 MORGAN PL",PRINCETON,NJ,08540,0.965,range,40.356367,-74.673046
"62 ETTL CIR",PRINCETON,NJ,08540,0.78,street,40.347757,-74.703025
"25 PINE ST A",PRINCETON,NJ,08542,0.958,range,40.352911,-74.651052
"335 PROSPECT AVE",PRINCETON,NJ,08540,0.965,range,40.353139,-74.637559
"73 FITCH WAY",PRINCETON,NJ,08540,0.965,range,40.378297,-74.67994
"167 JOHN ST",PRINCETON,NJ,08542,1.0,range,40.35354,-74.66369
"2 PARDOE RD",PRINCETON,NJ,08540,0.965,range,40.354124,-74.673181
"4259 PROVINCE LINE RD",PRINCETON,NJ,08540,0.868,street,40.309124,-74.694403
"4259 PROVINCE LINE RD",PRINCETON,NJ,08540,0.868,street,40.309124,-74.694403
"31 EVERGREEN CIR",PRINCETON,NJ,08540,0.965,range,40.360307,-74.629588
"57 FINLEY RD",PRINCETON,NJ,08540,0.965,range,40.361375,-74.709837
"105 BATTLE RD CIR",PRINCETON,NJ,08540,0.965,range,40.335575,-74.671458
"106 WILSON RD",PRINCETON,NJ,08540,0.965,range,40.353786,-74.673585
"14 MERSHON DR",PRINCETON,NJ,08540,0.965,range,40.355525,-74.64672
"64 LEIGH AVE",PRINCETON,NJ,08542,1.0,range,40.355885,-74.665419
"64 LEIGH AVE",PRINCETON,NJ,08542,1.0,range,40.355885,-74.665419
"66 SHADYBROOK LN",PRINCETON,NJ,08540,0.965,range,40.368207,-74.627815
"66 SHADYBROOK LN",PRINCETON,NJ,08540,0.965,range,40.368207,-74.627815
"329 HARRISON ST",PRINCETON,NJ,08540,0.771,street,40.351009,-74.643251
"109 ROSS STEVENSON CIR",PRINCETON,NJ,08540,0.965,range,40.38077,-74.659154
"57 GORDON WAY",PRINCETON,NJ,08540,0.965,range,40.355945,-74.645312
"59 WILSON RD",PRINCETON,NJ,08540,0.965,range,40.354111,-74.669611
"100 ADAMS DR",PRINCETON,NJ,08540,0.965,range,40.357015,-74.627717
"44 ARMOUR RD",PRINCETON,NJ,08540,0.965,range,40.344987,-74.671064
"49 WILTON ST",PRINCETON,NJ,08540,0.965,range,40.353551,-74.642042
"53 CLARKE CT",PRINCETON,NJ,08540,0.965,range,40.342092,-74.680213
"20 LINDEN LN",PRINCETON,NJ,08540,0.965,range,40.353563,-74.649503
"142 CEDAR LN",PRINCETON,NJ,08540,0.965,range,40.351003,-74.639433
"34 CEDAR LN",PRINCETON,NJ,08540,0.965,range,40.353763,-74.640975
"14 REDDING CIR",PRINCETON,NJ,08540,0.965,range,40.372411,-74.659317
"18 COLLEGE RD WEST",PRINCETON,NJ,08540,0.965,range,40.342159,-74.664844
"121 HARRIS RD",PRINCETON,NJ,08540,0.965,range,40.360327,-74.661391
